{"type":"FeatureCollection", "features": [
{"type":"Feature","geometry":{"type":"Point","coordinates":[-1477064.14635579,-327656.7413757965]},"properties":{"Category":"HSI","Name":"Arizona State University Downtown Phoenix Campus","Town":"Phoenix","State":"AZ","Latitude":33.4535,"Longitude":-112.0731,"Year_Estab":2006,"Comments":""}},
{"type":"Feature","geometry":{"type":"Point","coordinates":[-1482044.180108463,-309353.6567091476]},"properties":{"Category":"HSI","Name":"Arizona State University West Campus","Town":"Phoenix","State":"AZ","Latitude":33.6075,"Longitude":-112.1598,"Year_Estab":1984,"Comments":""}},
{"type":"Feature","geometry":{"type":"Point","coordinates":[-1713753.1164770948,-371002.33939610235]},"properties":{"Category":"HSI","Name":"Arizona Western College","Town":"Yuma","State":"AZ","Latitude":32.6879,"Longitude":-114.4975,"Year_Estab":1963,"Comments":""}},
{"type":"Feature","geometry":{"type":"Point","coordinates":[-1429647.0912786543,-340656.87361495756]},"properties":{"Category":"HSI","Name":"Central Arizona College","Town":"Coolidge","State":"AZ","Latitude":33.409,"Longitude":-111.5435,"Year_Estab":1969,"Comments":""}},
{"type":"Feature","geometry":{"type":"Point","coordinates":[-1293061.4932454037,-592029.0730306897]},"properties":{"Category":"HSI","Name":"Cochise College","Town":"Sierra Vista","State":"AZ","Latitude":31.3685081,"Longitude":-109.6897284,"Year_Estab":1964,"Comments":""}},
{"type":"Feature","geometry":{"type":"Point","coordinates":[-1478865.903053241,-313615.8124663327]},"properties":{"Category":"HSI","Name":"CollegeAmerica-Phoenix","Town":"Phoenix","State":"AZ","Latitude":33.5747,"Longitude":-112.118,"Year_Estab":1964,"Comments":""}},
{"type":"Feature","geometry":{"type":"Point","coordinates":[-1501155.5105821586,-320459.1753128562]},"properties":{"Category":"HSI","Name":"Estrella Mountain Community College","Town":"Avondale","State":"AZ","Latitude":33.4804,"Longitude":-112.3435,"Year_Estab":1992,"Comments":""}},
{"type":"Feature","geometry":{"type":"Point","coordinates":[-1470171.3252683117,-329148.128497988]},"properties":{"Category":"HSI","Name":"Gateway Community College","Town":"Phoenix","State":"AZ","Latitude":33.4507,"Longitude":-111.9968,"Year_Estab":1968,"Comments":""}},
{"type":"Feature","geometry":{"type":"Point","coordinates":[-1477979.7578699025,-324135.3904190771]},"properties":{"Category":"HSI","Name":"Phoenix College","Town":"Phoenix","State":"AZ","Latitude":33.4832,"Longitude":-112.0893,"Year_Estab":1920,"Comments":""}},
{"type":"Feature","geometry":{"type":"Point","coordinates":[-1402333.681007449,-478717.81544316]},"properties":{"Category":"HSI","Name":"Pima Community College","Town":"Tucson","State":"AZ","Latitude":32.2267,"Longitude":-111.0164,"Year_Estab":1969,"Comments":""}},
{"type":"Feature","geometry":{"type":"Point","coordinates":[-1396102.6026015135,-479121.56404428557]},"properties":{"Category":"HSI","Name":"University of Arizona","Town":"Tucson","State":"AZ","Latitude":32.2319,"Longitude":-110.9501,"Year_Estab":1885,"Comments":"Douglas, AZ second campus"}},
{"type":"Feature","geometry":{"type":"Point","coordinates":[-1341884.000352706,-562488.9748785924]},"properties":{"Category":"HSI","Name":"University of Arizona South","Town":"Sierra Vista","State":"AZ","Latitude":31.5668,"Longitude":-110.2456,"Year_Estab":1993,"Comments":""}},
{"type":"Feature","geometry":{"type":"Point","coordinates":[-2187661.630226713,-3566.5601572152227]},"properties":{"Category":"HSI","Name":"Allan Hancock College","Town":"Santa Maria","State":"CA","Latitude":34.9446,"Longitude":-120.4189,"Year_Estab":1920,"Comments":""}},
{"type":"Feature","geometry":{"type":"Point","coordinates":[-1998406.4164651178,-81781.43415177427]},"properties":{"Category":"HSI","Name":"Antelope Valley College","Town":"Lancaster","State":"CA","Latitude":34.677,"Longitude":-118.1863,"Year_Estab":1929,"Comments":""}},
{"type":"Feature","geometry":{"type":"Point","coordinates":[-2048224.0650408352,14425.846043144353]},"properties":{"Category":"HSI","Name":"Bakersfield College","Town":"Bakersfield","State":"CA","Latitude":35.4079,"Longitude":-118.9718,"Year_Estab":1913,"Comments":""}},
{"type":"Feature","geometry":{"type":"Point","coordinates":[-1890797.3703857255,-84380.17168107443]},"properties":{"Category":"HSI","Name":"Barstow Community College","Town":"Barstow","State":"CA","Latitude":34.8712,"Longitude":-117.025,"Year_Estab":1959,"Comments":""}},
{"type":"Feature","geometry":{"type":"Point","coordinates":[-2259974.285539508,355808.7471146723]},"properties":{"Category":"HSI","Name":"Berkeley City College","Town":"Berkeley","State":"CA","Latitude":37.8698,"Longitude":-122.2698,"Year_Estab":1974,"Comments":""}},
{"type":"Feature","geometry":{"type":"Point","coordinates":[-1987394.5769889103,-201600.20321077295]},"properties":{"Category":"HSI","Name":"Brandman University","Town":"Irvine","State":"CA","Latitude":33.6562,"Longitude":-117.769,"Year_Estab":1958,"Comments":""}},
{"type":"Feature","geometry":{"type":"Point","coordinates":[-2257621.520508305,252578.68793042097]},"properties":{"Category":"HSI","Name":"Cabrillo College","Town":"Aptos","State":"CA","Latitude":36.988856,"Longitude":-121.924605,"Year_Estab":1959,"Comments":""}},
{"type":"Feature","geometry":{"type":"Point","coordinates":[-1949761.725857559,-179079.32012966275]},"properties":{"Category":"HSI","Name":"California Baptist University","Town":"Riverside","State":"CA","Latitude":33.928476,"Longitude":-117.425387,"Year_Estab":1950,"Comments":""}},
{"type":"Feature","geometry":{"type":"Point","coordinates":[-1953517.6556297098,-302981.9101447128]},"properties":{"Category":"HSI","Name":"California College San Diego","Town":"San Diego","State":"CA","Latitude":32.839142,"Longitude":-117.167084,"Year_Estab":1978,"Comments":""}},
{"type":"Feature","geometry":{"type":"Point","coordinates":[-2071660.8479519086,-116090.60147086717]},"properties":{"Category":"HSI","Name":"California Lutheran University","Town":"Thousand Oaks","State":"CA","Latitude":34.224875,"Longitude":-118.878972,"Year_Estab":1959,"Comments":""}},
{"type":"Feature","geometry":{"type":"Point","coordinates":[-1981877.925400877,-156771.48736299574]},"properties":{"Category":"HSI","Name":"California State Polytechnic University, Pomona","Town":"Pomona","State":"CA","Latitude":34.058116,"Longitude":-117.82146,"Year_Estab":1938,"Comments":""}},
{"type":"Feature","geometry":{"type":"Point","coordinates":[-2061111.6652238078,10915.74619727768]},"properties":{"Category":"HSI","Name":"California State University, Bakersfield","Town":"Bakersfield","State":"CA","Latitude":35.349817,"Longitude":-119.101345,"Year_Estab":1965,"Comments":""}},
{"type":"Feature","geometry":{"type":"Point","coordinates":[-2087935.0698443523,-119336.3510003388]},"properties":{"Category":"HSI","Name":"California State University Channel Islands","Town":"Camarillo","State":"CA","Latitude":34.161849,"Longitude":-119.043239,"Year_Estab":2002,"Comments":""}},
{"type":"Feature","geometry":{"type":"Point","coordinates":[-2168534.6923592766,546639.9481890257]},"properties":{"Category":"HSI","Name":"California State University, Chico","Town":"Chico","State":"CA","Latitude":39.729743,"Longitude":-121.847313,"Year_Estab":1887,"Comments":""}},
{"type":"Feature","geometry":{"type":"Point","coordinates":[-2025608.1371257468,-168797.20411609858]},"properties":{"Category":"HSI","Name":"California State University, Dominguez Hills","Town":"Carson","State":"CA","Latitude":33.863451,"Longitude":-118.255249,"Year_Estab":1960,"Comments":""}},
{"type":"Feature","geometry":{"type":"Point","coordinates":[-2248621.6239425144,327829.6807557661]},"properties":{"Category":"HSI","Name":"California State University, East Bay","Town":"Hayward","State":"CA","Latitude":37.657097,"Longitude":-122.057434,"Year_Estab":1957,"Comments":""}},
{"type":"Feature","geometry":{"type":"Point","coordinates":[-2076924.8537572587,183784.58319269866]},"properties":{"Category":"HSI","Name":"California State University, Fresno","Town":"Fresno","State":"CA","Latitude":36.812376,"Longitude":-119.745802,"Year_Estab":1911,"Comments":""}},
{"type":"Feature","geometry":{"type":"Point","coordinates":[-1992197.6908169603,-174473.7601084225]},"properties":{"Category":"HSI","Name":"California State University, Fullerton","Town":"Fullerton","State":"CA","Latitude":33.882833,"Longitude":-117.887012,"Year_Estab":1957,"Comments":""}},
{"type":"Feature","geometry":{"type":"Point","coordinates":[-2015045.7805135269,-180468.01916761324]},"properties":{"Category":"HSI","Name":"California State University, Long Beach","Town":"Long Beach","State":"CA","Latitude":33.783699,"Longitude":-118.114058,"Year_Estab":1949,"Comments":""}},
{"type":"Feature","geometry":{"type":"Point","coordinates":[-2012499.0256561777,-148569.58239251003]},"properties":{"Category":"HSI","Name":"California State University, Los Angeles","Town":"Los Angeles","State":"CA","Latitude":34.0667,"Longitude":-118.1673,"Year_Estab":1947,"Comments":""}},
{"type":"Feature","geometry":{"type":"Point","coordinates":[-2256980.9817275056,213182.0446903007]},"properties":{"Category":"HSI","Name":"California State University, Monterey Bay","Town":"Marina","State":"CA","Latitude":36.6517,"Longitude":-121.7978,"Year_Estab":1994,"Comments":"Seaside, CA second campus"}},
{"type":"Feature","geometry":{"type":"Point","coordinates":[-2040033.109492466,-121938.22690188698]},"properties":{"Category":"HSI","Name":"California State University, Northridge","Town":"Los Angeles","State":"CA","Latitude":34.241,"Longitude":-118.5277,"Year_Estab":1958,"Comments":""}},
{"type":"Feature","geometry":{"type":"Point","coordinates":[-2168504.530158672,410762.4388030749]},"properties":{"Category":"HSI","Name":"California State University, Sacramento","Town":"Sacramento","State":"CA","Latitude":38.5613,"Longitude":-121.4241,"Year_Estab":1947,"Comments":""}},
{"type":"Feature","geometry":{"type":"Point","coordinates":[-1934336.6425540012,-153517.97518065013]},"properties":{"Category":"HSI","Name":"California State University, San Bernardino","Town":"San Bernardino","State":"CA","Latitude":34.1822,"Longitude":-117.3235,"Year_Estab":1965,"Comments":""}},
{"type":"Feature","geometry":{"type":"Point","coordinates":[-1945645.2058294981,-271574.7750388384]},"properties":{"Category":"HSI","Name":"California State University, San Marcos","Town":"San Marcos","State":"CA","Latitude":33.1292,"Longitude":-117.1591,"Year_Estab":1989,"Comments":""}},
{"type":"Feature","geometry":{"type":"Point","coordinates":[-2151217.6360008228,285766.81523563154]},"properties":{"Category":"HSI","Name":"California State University, Stanislaus","Town":"Turlock","State":"CA","Latitude":37.5252,"Longitude":-120.8562,"Year_Estab":1957,"Comments":""}},
{"type":"Feature","geometry":{"type":"Point","coordinates":[-2272474.472415231,310204.7378997272]},"properties":{"Category":"HSI","Name":"Canada College","Town":"Redwood City","State":"CA","Latitude":37.4479,"Longitude":-122.265,"Year_Estab":1968,"Comments":""}},
{"type":"Feature","geometry":{"type":"Point","coordinates":[-2010660.8855987142,-169713.9300376922]},"properties":{"Category":"HSI","Name":"Cerritos College","Town":"Norwalk","State":"CA","Latitude":33.8864,"Longitude":-118.0946,"Year_Estab":1955,"Comments":""}},
{"type":"Feature","geometry":{"type":"Point","coordinates":[-2253201.014320924,327419.4772781376]},"properties":{"Category":"HSI","Name":"Chabot College","Town":"Haywood","State":"CA","Latitude":37.6425,"Longitude":-122.1066,"Year_Estab":1961,"Comments":""}},
{"type":"Feature","geometry":{"type":"Point","coordinates":[-1957287.7787608807,-152320.04441650398]},"properties":{"Category":"HSI","Name":"Chaffey College","Town":"Rancho Cucamonga","State":"CA","Latitude":34.1467,"Longitude":-117.5709,"Year_Estab":1883,"Comments":""}},
{"type":"Feature","geometry":{"type":"Point","coordinates":[-1985736.6479141081,-147283.44389137812]},"properties":{"Category":"HSI","Name":"Citrus College","Town":"Glendora","State":"CA","Latitude":34.1329,"Longitude":-117.8861,"Year_Estab":1915,"Comments":""}},
{"type":"Feature","geometry":{"type":"Point","coordinates":[-2000242.8020481076,-191778.06799470633]},"properties":{"Category":"HSI","Name":"Coastline Community College","Town":"Fountain Valley","State":"CA","Latitude":33.7156,"Longitude":-117.9292,"Year_Estab":1976,"Comments":""}},
{"type":"Feature","geometry":{"type":"Point","coordinates":[-2275713.2571479934,321272.0429291418]},"properties":{"Category":"HSI","Name":"College of San Mateo","Town":"San Mateo","State":"CA","Latitude":37.535,"Longitude":-122.3351,"Year_Estab":1922,"Comments":""}},
{"type":"Feature","geometry":{"type":"Point","coordinates":[-2039469.4414505342,-103290.93514378928]},"properties":{"Category":"HSI","Name":"College of the Canyons","Town":"Santa Clarita","State":"CA","Latitude":34.4043,"Longitude":-118.5697,"Year_Estab":1969,"Comments":""}},
{"type":"Feature","geometry":{"type":"Point","coordinates":[-1846790.4330467759,-226102.3296710495]},"properties":{"Category":"HSI","Name":"College of the Desert","Town":"Palm Desert","State":"CA","Latitude":33.718,"Longitude":-116.2205,"Year_Estab":1958,"Comments":""}},
{"type":"Feature","geometry":{"type":"Point","coordinates":[-2053269.1101581592,121501.07006960921]},"properties":{"Category":"HSI","Name":"College of the Sequoias","Town":"Visalia","State":"CA","Latitude":36.3251,"Longitude":-119.315,"Year_Estab":1926,"Comments":""}},
{"type":"Feature","geometry":{"type":"Point","coordinates":[-2262908.28910933,368072.53202670533]},"properties":{"Category":"HSI","Name":"Contra Costa College","Town":"San Pablo","State":"CA","Latitude":37.9679,"Longitude":-122.3407,"Year_Estab":1946,"Comments":""}},
{"type":"Feature","geometry":{"type":"Point","coordinates":[-1917968.4056757058,-173692.35160682723]},"properties":{"Category":"HSI","Name":"Crafton Hills College","Town":"Yucaipa","State":"CA","Latitude":34.0386,"Longitude":-117.1004,"Year_Estab":1972,"Comments":""}},
{"type":"Feature","geometry":{"type":"Point","coordinates":[-2204711.2070643483,45461.778133132495]},"properties":{"Category":"HSI","Name":"Cuesta College","Town":"San Luis Obispo","State":"CA","Latitude":35.3292,"Longitude":-120.7401,"Year_Estab":1963,"Comments":""}},
{"type":"Feature","geometry":{"type":"Point","coordinates":[-1935414.1749647742,-317860.1897808183]},"properties":{"Category":"HSI","Name":"Cuyamaca College","Town":"Rancho San Diego","State":"CA","Latitude":32.7447,"Longitude":-116.9423,"Year_Estab":1978,"Comments":""}},
{"type":"Feature","geometry":{"type":"Point","coordinates":[-2005931.0183773814,-177537.33103362657]},"properties":{"Category":"HSI","Name":"Cypress College","Town":"Cypress","State":"CA","Latitude":33.828,"Longitude":-118.0249,"Year_Estab":1966,"Comments":""}},
{"type":"Feature","geometry":{"type":"Point","coordinates":[-2011610.082021608,-151687.01692410372]},"properties":{"Category":"HSI","Name":"East Los Angeles College","Town":"Monterey Park","State":"CA","Latitude":34.0414,"Longitude":-118.15,"Year_Estab":1945,"Comments":""}},
{"type":"Feature","geometry":{"type":"Point","coordinates":[-2031774.438691532,-164905.34097215906]},"properties":{"Category":"HSI","Name":"El Camino College","Town":"Alondra Park","State":"CA","Latitude":33.8845,"Longitude":-118.3304,"Year_Estab":1947,"Comments":""}},
{"type":"Feature","geometry":{"type":"Point","coordinates":[-2234665.806479664,282419.4909981284]},"properties":{"Category":"HSI","Name":"Evergreen Valley College","Town":"San Jose","State":"CA","Latitude":37.3004,"Longitude":-121.7644,"Year_Estab":1975,"Comments":""}},
{"type":"Feature","geometry":{"type":"Point","coordinates":[-2082574.315311422,179957.7054546345]},"properties":{"Category":"HSI","Name":"Fresno City College","Town":"Fresno","State":"CA","Latitude":36.7668,"Longitude":-119.797,"Year_Estab":1910,"Comments":""}},
{"type":"Feature","geometry":{"type":"Point","coordinates":[-2078298.1727425521,174251.75231203437]},"properties":{"Category":"HSI","Name":"Fresno Pacific University","Town":"Fresno","State":"CA","Latitude":36.7269,"Longitude":-119.7342,"Year_Estab":1944,"Comments":""}},
{"type":"Feature","geometry":{"type":"Point","coordinates":[-1995103.0689368353,-174599.2630562298]},"properties":{"Category":"HSI","Name":"Fullerton College","Town":"Fullerton","State":"CA","Latitude":33.8758,"Longitude":-117.9175,"Year_Estab":1913,"Comments":""}},
{"type":"Feature","geometry":{"type":"Point","coordinates":[-2227839.5563242543,242497.7121124193]},"properties":{"Category":"HSI","Name":"Gavilan College","Town":"Gilroy","State":"CA","Latitude":36.9733,"Longitude":-121.5686,"Year_Estab":1919,"Comments":""}},
{"type":"Feature","geometry":{"type":"Point","coordinates":[-2015319.5936509403,-136374.58197001927]},"properties":{"Category":"HSI","Name":"Glendale Community College","Town":"Glendale","State":"CA","Latitude":34.167,"Longitude":-118.2281,"Year_Estab":1927,"Comments":""}},
{"type":"Feature","geometry":{"type":"Point","coordinates":[-2006451.2481154783,-188193.64542059973]},"properties":{"Category":"HSI","Name":"Golden West College","Town":"Huntington Beach","State":"CA","Latitude":33.7341,"Longitude":-118.0038,"Year_Estab":1965,"Comments":""}},
{"type":"Feature","geometry":{"type":"Point","coordinates":[-1939507.5493573672,-308709.4885565061]},"properties":{"Category":"HSI","Name":"Grossmont College","Town":"El Cajon","State":"CA","Latitude":32.8167,"Longitude":-117.0067,"Year_Estab":1961,"Comments":""}},
{"type":"Feature","geometry":{"type":"Point","coordinates":[-2245300.335643504,212450.87373047136]},"properties":{"Category":"HSI","Name":"Hartnell College","Town":"Salinas","State":"CA","Latitude":36.6733,"Longitude":-121.6685,"Year_Estab":1920,"Comments":""}},
{"type":"Feature","geometry":{"type":"Point","coordinates":[-2255077.224156516,346547.23395397514]},"properties":{"Category":"HSI","Name":"Holy Names University","Town":"Oakland","State":"CA","Latitude":37.8022,"Longitude":-122.1868,"Year_Estab":1868,"Comments":""}},
{"type":"Feature","geometry":{"type":"Point","coordinates":[-2313049.6123349164,722445.7982369838]},"properties":{"Category":"HSI","Name":"Humboldt State University","Town":"Arcata","State":"CA","Latitude":40.8753,"Longitude":-124.0778,"Year_Estab":1913,"Comments":""}},
{"type":"Feature","geometry":{"type":"Point","coordinates":[-2175761.2220799527,348789.58825340215]},"properties":{"Category":"HSI","Name":"Humphreys University","Town":"Stockton","State":"CA","Latitude":38.0109,"Longitude":-121.3162,"Year_Estab":1896,"Comments":"Modesto, CA second campus"}},
{"type":"Feature","geometry":{"type":"Point","coordinates":[-1991432.708377591,-193751.29846083745]},"properties":{"Category":"HSI","Name":"Irvine Valley College","Town":"Irvine","State":"CA","Latitude":33.7164,"Longitude":-117.8311,"Year_Estab":1985,"Comments":""}},
{"type":"Feature","geometry":{"type":"Point","coordinates":[-2239288.940872792,360098.3949972382]},"properties":{"Category":"HSI","Name":"John F. Kennedy University","Town":"Pleasant Hill","State":"CA","Latitude":37.9568,"Longitude":-122.0546,"Year_Estab":1964,"Comments":""}},
{"type":"Feature","geometry":{"type":"Point","coordinates":[-1956816.449258904,-179404.85963744856]},"properties":{"Category":"HSI","Name":"La Sierra University","Town":"Riverside","State":"CA","Latitude":33.9115,"Longitude":-117.4995,"Year_Estab":1922,"Comments":""}},
{"type":"Feature","geometry":{"type":"Point","coordinates":[-2037206.9591583945,418262.32030664757]},"properties":{"Category":"HSI","Name":"Lake Tahoe Community College","Town":"South Lake Tahoe","State":"CA","Latitude":38.927,"Longitude":-119.9728,"Year_Estab":1975,"Comments":""}},
{"type":"Feature","geometry":{"type":"Point","coordinates":[-2015596.707754442,-174580.9346834831]},"properties":{"Category":"HSI","Name":"Long Beach City College","Town":"Long Beach","State":"CA","Latitude":33.83383,"Longitude":-118.1346661,"Year_Estab":1927,"Comments":""}},
{"type":"Feature","geometry":{"type":"Point","coordinates":[-2023148.4587114428,-143665.12469746172]},"properties":{"Category":"HSI","Name":"Los Angeles City College","Town":"Los Angeles","State":"CA","Latitude":34.0873,"Longitude":-118.2928,"Year_Estab":1929,"Comments":""}},
{"type":"Feature","geometry":{"type":"Point","coordinates":[-2030245.7891281857,-176805.33124605194]},"properties":{"Category":"HSI","Name":"Los Angeles Harbor College","Town":"Los Angeles","State":"CA","Latitude":33.7841,"Longitude":-118.2841,"Year_Estab":1949,"Comments":""}},
{"type":"Feature","geometry":{"type":"Point","coordinates":[-2028476.3033131205,-116179.02586814389]},"properties":{"Category":"HSI","Name":"Los Angeles Mission College","Town":"Los Angeles","State":"CA","Latitude":34.3153,"Longitude":-118.4195,"Year_Estab":1975,"Comments":""}},
{"type":"Feature","geometry":{"type":"Point","coordinates":[-2046095.3530699676,-126970.03422100283]},"properties":{"Category":"HSI","Name":"Los Angeles Pierce College","Town":"Woodland Hills","State":"CA","Latitude":34.1845,"Longitude":-118.5792,"Year_Estab":1947,"Comments":""}},
{"type":"Feature","geometry":{"type":"Point","coordinates":[-2022620.4052670444,-150249.22537668794]},"properties":{"Category":"HSI","Name":"Los Angeles Trade-Technical College","Town":"Los Angeles","State":"CA","Latitude":34.0311,"Longitude":-118.2705,"Year_Estab":1925,"Comments":""}},
{"type":"Feature","geometry":{"type":"Point","coordinates":[-2032319.6335647712,-131305.89595676214]},"properties":{"Category":"HSI","Name":"Los Angeles Valley College","Town":"Los Angeles","State":"CA","Latitude":34.1757,"Longitude":-118.4217,"Year_Estab":1949,"Comments":""}},
{"type":"Feature","geometry":{"type":"Point","coordinates":[-2221476.7464324995,360788.69419966545]},"properties":{"Category":"HSI","Name":"Los Medanos College","Town":"Pittsburg","State":"CA","Latitude":38.0056,"Longitude":-121.8596,"Year_Estab":1974,"Comments":""}},
{"type":"Feature","geometry":{"type":"Point","coordinates":[-2035973.9410112845,-181064.21554540657]},"properties":{"Category":"HSI","Name":"Marymount California University","Town":"Rancho Palos Verdes","State":"CA","Latitude":33.7351,"Longitude":-118.3339,"Year_Estab":1932,"Comments":""}},
{"type":"Feature","geometry":{"type":"Point","coordinates":[-2298567.3318825075,520943.63564245775]},"properties":{"Category":"HSI","Name":"Mendocino College","Town":"Ukiah","State":"CA","Latitude":39.1895,"Longitude":-123.2303,"Year_Estab":1973,"Comments":""}},
{"type":"Feature","geometry":{"type":"Point","coordinates":[-2124560.7536760326,256576.27724755649]},"properties":{"Category":"HSI","Name":"Merced College","Town":"Merced","State":"CA","Latitude":37.3345,"Longitude":-120.4768,"Year_Estab":1962,"Comments":""}},
{"type":"Feature","geometry":{"type":"Point","coordinates":[-2253684.9437923064,344674.58521179203]},"properties":{"Category":"HSI","Name":"Merritt College","Town":"Oakland","State":"CA","Latitude":37.7895,"Longitude":-122.1656,"Year_Estab":1954,"Comments":""}},
{"type":"Feature","geometry":{"type":"Point","coordinates":[-2255755.809682469,344467.8915263321]},"properties":{"Category":"HSI","Name":"Mills College","Town":"Oakland","State":"CA","Latitude":37.7827,"Longitude":-122.1878,"Year_Estab":1852,"Comments":""}},
{"type":"Feature","geometry":{"type":"Point","coordinates":[-1957074.693448833,-262018.06299646385]},"properties":{"Category":"HSI","Name":"MiraCosta College","Town":"Oceanside","State":"CA","Latitude":33.19,"Longitude":-117.3022,"Year_Estab":1934,"Comments":""}},
{"type":"Feature","geometry":{"type":"Point","coordinates":[-2160495.658154599,302984.38139578886]},"properties":{"Category":"HSI","Name":"Modesto Junior College","Town":"Modesto","State":"CA","Latitude":37.6521,"Longitude":-121.0097,"Year_Estab":1921,"Comments":""}},
{"type":"Feature","geometry":{"type":"Point","coordinates":[-2266214.837269947,208569.25346644223]},"properties":{"Category":"HSI","Name":"Monterey Peninsula College","Town":"Monterey","State":"CA","Latitude":36.5899,"Longitude":-121.8842,"Year_Estab":1947,"Comments":""}},
{"type":"Feature","geometry":{"type":"Point","coordinates":[-1930889.7401588568,-188103.8066604156]},"properties":{"Category":"HSI","Name":"Moreno Valley College","Town":"Moreno Valley","State":"CA","Latitude":33.8873,"Longitude":-117.2031,"Year_Estab":2010,"Comments":""}},
{"type":"Feature","geometry":{"type":"Point","coordinates":[-2023369.9593723835,-150231.11658775248]},"properties":{"Category":"HSI","Name":"Mount Saint Mary's University","Town":"Los Angeles","State":"CA","Latitude":34.0297,"Longitude":-118.2785,"Year_Estab":1925,"Comments":""}},
{"type":"Feature","geometry":{"type":"Point","coordinates":[-1984202.5834272066,-157400.42706249654]},"properties":{"Category":"HSI","Name":"Mt. San Antonio College","Town":"Walnut","State":"CA","Latitude":34.0479,"Longitude":-117.8446,"Year_Estab":1946,"Comments":""}},
{"type":"Feature","geometry":{"type":"Point","coordinates":[-1911958.1035112238,-201584.12834894843]},"properties":{"Category":"HSI","Name":"Mt. San Jacinto College","Town":"San Jacinto","State":"CA","Latitude":33.8069,"Longitude":-116.9698,"Year_Estab":1962,"Comments":"Menifee, CA/Banning, CA/Temecula, CA additional campuses"}},
{"type":"Feature","geometry":{"type":"Point","coordinates":[-2248121.982772211,399619.8644850617]},"properties":{"Category":"HSI","Name":"Napa Valley College","Town":"Napa","State":"CA","Latitude":38.2747,"Longitude":-122.2762,"Year_Estab":1942,"Comments":""}},
{"type":"Feature","geometry":{"type":"Point","coordinates":[-1950143.9223654612,-304848.27658269554]},"properties":{"Category":"HSI","Name":"National University","Town":"San Diego","State":"CA","Latitude":32.8295,"Longitude":-117.1273,"Year_Estab":1971,"Comments":""}},
{"type":"Feature","geometry":{"type":"Point","coordinates":[-1962915.4151747902,-177379.43693381734]},"properties":{"Category":"HSI","Name":"Norco College","Town":"Norco","State":"CA","Latitude":33.9169,"Longitude":-117.5692,"Year_Estab":1991,"Comments":""}},
{"type":"Feature","geometry":{"type":"Point","coordinates":[-2272028.2679979885,318162.78290477395]},"properties":{"Category":"HSI","Name":"Notre Dame de Namur University","Town":"Belmont","State":"CA","Latitude":37.5173,"Longitude":-122.2849,"Year_Estab":1851,"Comments":""}},
{"type":"Feature","geometry":{"type":"Point","coordinates":[-1999676.5799036361,-197017.5112284124]},"properties":{"Category":"HSI","Name":"Orange Coast College","Town":"Costa Mesa","State":"CA","Latitude":33.6711,"Longitude":-117.9102,"Year_Estab":1947,"Comments":""}},
{"type":"Feature","geometry":{"type":"Point","coordinates":[-2097986.427359303,-116469.41219720803]},"properties":{"Category":"HSI","Name":"Oxnard College","Town":"Oxnard","State":"CA","Latitude":34.1651,"Longitude":-119.1574,"Year_Estab":1975,"Comments":""}},
{"type":"Feature","geometry":{"type":"Point","coordinates":[-2250338.3176625553,287083.1118957354]},"properties":{"Category":"HSI","Name":"Pacific Oaks College","Town":"Pasadena","State":"CA","Latitude":37.3029,"Longitude":-121.9506,"Year_Estab":1958,"Comments":""}},
{"type":"Feature","geometry":{"type":"Point","coordinates":[-2252645.0985737294,435310.26222768053]},"properties":{"Category":"HSI","Name":"Pacific Union College","Town":"Angwin","State":"CA","Latitude":38.5699,"Longitude":-122.4395,"Year_Estab":1882,"Comments":""}},
{"type":"Feature","geometry":{"type":"Point","coordinates":[-2267925.678099762,301299.13263386115]},"properties":{"Category":"HSI","Name":"Palo Alto University","Town":"Palo Alto","State":"CA","Latitude":37.3825,"Longitude":-122.1874,"Year_Estab":1975,"Comments":""}},
{"type":"Feature","geometry":{"type":"Point","coordinates":[-1947256.1396567868,-268783.4214964807]},"properties":{"Category":"HSI","Name":"Palomar College","Town":"San Marcos","State":"CA","Latitude":33.1504,"Longitude":-117.1827,"Year_Estab":1946,"Comments":""}},
{"type":"Feature","geometry":{"type":"Point","coordinates":[-2006132.0455478097,-141212.0138229169]},"properties":{"Category":"HSI","Name":"Pasadena City College","Town":"Pasadena","State":"CA","Latitude":34.1439,"Longitude":-118.1182,"Year_Estab":1924,"Comments":""}},
{"type":"Feature","geometry":{"type":"Point","coordinates":[-2034729.5902005695,85048.95539795514]},"properties":{"Category":"HSI","Name":"Porterville College","Town":"Porterville","State":"CA","Latitude":36.0492,"Longitude":-119.0144,"Year_Estab":1927,"Comments":""}},
{"type":"Feature","geometry":{"type":"Point","coordinates":[-2058079.9266067888,155268.23396082688]},"properties":{"Category":"HSI","Name":"Reedley College","Town":"Reedley","State":"CA","Latitude":36.607,"Longitude":-119.4602,"Year_Estab":1926,"Comments":""}},
{"type":"Feature","geometry":{"type":"Point","coordinates":[-2001809.776263636,-156522.4455480408]},"properties":{"Category":"HSI","Name":"Rio Hondo College","Town":"Whittier","State":"CA","Latitude":34.0195,"Longitude":-118.0338,"Year_Estab":1963,"Comments":""}},
{"type":"Feature","geometry":{"type":"Point","coordinates":[-1944709.2994221114,-175304.3064792808]},"properties":{"Category":"HSI","Name":"Riverside City College","Town":"Riverside","State":"CA","Latitude":33.9715,"Longitude":-117.3809,"Year_Estab":1916,"Comments":""}},
{"type":"Feature","geometry":{"type":"Point","coordinates":[-2174568.080295043,410013.0702881189]},"properties":{"Category":"HSI","Name":"Sacramento City College","Town":"Sacramento","State":"CA","Latitude":38.5405344,"Longitude":-121.4895333,"Year_Estab":1916,"Comments":""}},
{"type":"Feature","geometry":{"type":"Point","coordinates":[-2247424.657508502,348975.3509952752]},"properties":{"Category":"HSI","Name":"Saint Mary's College of California","Town":"Moraga","State":"CA","Latitude":37.8416,"Longitude":-122.1099,"Year_Estab":1863,"Comments":""}},
{"type":"Feature","geometry":{"type":"Point","coordinates":[-1935552.8492849784,-164074.8591666296]},"properties":{"Category":"HSI","Name":"San Bernardino Valley College","Town":"San Bernardino","State":"CA","Latitude":34.0877,"Longitude":-117.3108,"Year_Estab":1926,"Comments":""}},
{"type":"Feature","geometry":{"type":"Point","coordinates":[-1955021.1688987936,-316532.91775506176]},"properties":{"Category":"HSI","Name":"San Diego City College","Town":"San Diego","State":"CA","Latitude":32.7177,"Longitude":-117.1507,"Year_Estab":1914,"Comments":""}},
{"type":"Feature","geometry":{"type":"Point","coordinates":[-1954399.3460386328,-306699.4054872114]},"properties":{"Category":"HSI","Name":"San Diego Mesa College","Town":"San Diego","State":"CA","Latitude":32.8049,"Longitude":-117.1675,"Year_Estab":1963,"Comments":""}},
{"type":"Feature","geometry":{"type":"Point","coordinates":[-1946434.4817346155,-311839.0599412136]},"properties":{"Category":"HSI","Name":"San Diego State University","Town":"San Diego","State":"CA","Latitude":32.7757,"Longitude":-117.0719,"Year_Estab":1897,"Comments":""}},
{"type":"Feature","geometry":{"type":"Point","coordinates":[-2281997.3685802794,344846.6921374677]},"properties":{"Category":"HSI","Name":"San Francisco State University","Town":"San Francisco","State":"CA","Latitude":37.7219,"Longitude":-122.4782,"Year_Estab":1899,"Comments":""}},
{"type":"Feature","geometry":{"type":"Point","coordinates":[-2176484.7985594366,347360.5128103215]},"properties":{"Category":"HSI","Name":"San Joaquin Delta College","Town":"Stockton","State":"CA","Latitude":37.9969,"Longitude":-121.3199,"Year_Estab":1935,"Comments":""}},
{"type":"Feature","geometry":{"type":"Point","coordinates":[-2248016.7556256764,287852.9536549952]},"properties":{"Category":"HSI","Name":"San Jose City College","Town":"San Jose","State":"CA","Latitude":37.3151,"Longitude":-121.9275,"Year_Estab":1921,"Comments":""}},
{"type":"Feature","geometry":{"type":"Point","coordinates":[-2243487.860029324,288925.7783538345]},"properties":{"Category":"HSI","Name":"San Jose State University","Town":"San Jose","State":"CA","Latitude":37.3352,"Longitude":-121.8811,"Year_Estab":1857,"Comments":""}},
{"type":"Feature","geometry":{"type":"Point","coordinates":[-1995528.9942756374,-188041.75849529728]},"properties":{"Category":"HSI","Name":"Santa Ana College","Town":"Santa Ana","State":"CA","Latitude":33.7578,"Longitude":-117.8886,"Year_Estab":1915,"Comments":""}},
{"type":"Feature","geometry":{"type":"Point","coordinates":[-2139249.986354721,-78326.07489469834]},"properties":{"Category":"HSI","Name":"Santa Barbara City College","Town":"Santa Barbara","State":"CA","Latitude":34.4059,"Longitude":-119.6973,"Year_Estab":1911,"Comments":""}},
{"type":"Feature","geometry":{"type":"Point","coordinates":[-2040753.0667151469,-147520.82955752686]},"properties":{"Category":"HSI","Name":"Santa Monica College","Town":"Santa Monica","State":"CA","Latitude":34.017,"Longitude":-118.4698,"Year_Estab":1929,"Comments":""}},
{"type":"Feature","geometry":{"type":"Point","coordinates":[-2279369.3649906144,429936.3201687271]},"properties":{"Category":"HSI","Name":"Santa Rosa Junior College","Town":"Santa Rosa","State":"CA","Latitude":38.458,"Longitude":-122.7197,"Year_Estab":1918,"Comments":""}},
{"type":"Feature","geometry":{"type":"Point","coordinates":[-1983666.4115384272,-186501.17490280792]},"properties":{"Category":"HSI","Name":"Santiago Canyon College","Town":"Orange","State":"CA","Latitude":33.7954,"Longitude":-117.7668,"Year_Estab":1985,"Comments":""}},
{"type":"Feature","geometry":{"type":"Point","coordinates":[-2283793.226203045,334659.2877671132]},"properties":{"Category":"HSI","Name":"Skyline College","Town":"San Bruno","State":"CA","Latitude":37.6301,"Longitude":-122.4659,"Year_Estab":1969,"Comments":""}},
{"type":"Feature","geometry":{"type":"Point","coordinates":[-1943029.4417049964,-328041.29619620927]},"properties":{"Category":"HSI","Name":"Southwestern College","Town":"Chula Vista","State":"CA","Latitude":32.6407,"Longitude":-116.9981,"Year_Estab":1961,"Comments":""}},
{"type":"Feature","geometry":{"type":"Point","coordinates":[-2098064.8756862045,-3040.6041432190686]},"properties":{"Category":"HSI","Name":"Taft College","Town":"Taft","State":"CA","Latitude":35.1487475,"Longitude":-119.4611726,"Year_Estab":1922,"Comments":""}},
{"type":"Feature","geometry":{"type":"Point","coordinates":[-2119360.4978416385,258649.576609754]},"properties":{"Category":"HSI","Name":"University of California, Merced","Town":"Merced","State":"CA","Latitude":37.3642,"Longitude":-120.4255,"Year_Estab":2005,"Comments":""}},
{"type":"Feature","geometry":{"type":"Point","coordinates":[-1939933.1385820096,-176143.77271096967]},"properties":{"Category":"HSI","Name":"University of California, Riverside","Town":"Riverside","State":"CA","Latitude":33.9737,"Longitude":-117.3281,"Year_Estab":1954,"Comments":"Palm Desert, CA second campus"}},
{"type":"Feature","geometry":{"type":"Point","coordinates":[-2152423.0571330828,-74025.46419204026]},"properties":{"Category":"HSI","Name":"University of California, Santa Barbara","Town":"Santa Barbara","State":"CA","Latitude":34.414,"Longitude":-119.8489,"Year_Estab":1891,"Comments":""}},
{"type":"Feature","geometry":{"type":"Point","coordinates":[-2268888.4954638593,256058.7242035987]},"properties":{"Category":"HSI","Name":"University of California, Santa Cruz","Town":"Santa Cruz","State":"CA","Latitude":36.9916,"Longitude":-122.0583,"Year_Estab":1965,"Comments":""}},
{"type":"Feature","geometry":{"type":"Point","coordinates":[-1976382.6001557761,-153201.31634964794]},"properties":{"Category":"HSI","Name":"University of La Verne","Town":"La Verne","State":"CA","Latitude":34.1004,"Longitude":-117.7719,"Year_Estab":1891,"Comments":""}},
{"type":"Feature","geometry":{"type":"Point","coordinates":[-1999149.3591158288,-198196.88591677137]},"properties":{"Category":"HSI","Name":"Vanguard University","Town":"Costa Mesa","State":"CA","Latitude":33.6619,"Longitude":-117.9017,"Year_Estab":1920,"Comments":""}},
{"type":"Feature","geometry":{"type":"Point","coordinates":[-2101546.8931821114,-102691.51637736335]},"properties":{"Category":"HSI","Name":"Ventura College","Town":"Ventura","State":"CA","Latitude":34.277,"Longitude":-119.2316,"Year_Estab":1925,"Comments":""}},
{"type":"Feature","geometry":{"type":"Point","coordinates":[-2148094.645491196,125297.64699774608]},"properties":{"Category":"HSI","Name":"West Hills College Coalinga","Town":"Coalinga","State":"CA","Latitude":36.1478,"Longitude":-120.357,"Year_Estab":1932,"Comments":""}},
{"type":"Feature","geometry":{"type":"Point","coordinates":[-2098053.6656487794,129063.45657873526]},"properties":{"Category":"HSI","Name":"West Hills College Lemoore","Town":"Lemoore","State":"CA","Latitude":36.2924,"Longitude":-119.8238,"Year_Estab":2002,"Comments":""}},
{"type":"Feature","geometry":{"type":"Point","coordinates":[-2033706.7666789386,-150686.68587681465]},"properties":{"Category":"HSI","Name":"West Los Angeles College","Town":"Culver City","State":"CA","Latitude":34.0042,"Longitude":-118.387,"Year_Estab":1969,"Comments":""}},
{"type":"Feature","geometry":{"type":"Point","coordinates":[-2002723.622475443,-160991.77790814266]},"properties":{"Category":"HSI","Name":"Whittier College","Town":"Whittier","State":"CA","Latitude":33.9787,"Longitude":-118.0323,"Year_Estab":1887,"Comments":""}},
{"type":"Feature","geometry":{"type":"Point","coordinates":[-2024345.3940489038,-129552.2730905842]},"properties":{"Category":"HSI","Name":"Woodbury University","Town":"Burbank","State":"CA","Latitude":34.2076,"Longitude":-118.3414,"Year_Estab":1884,"Comments":"Los Angeles and San Diego, CA additional campuses"}},
{"type":"Feature","geometry":{"type":"Point","coordinates":[-2191397.0483436934,428367.52683434356]},"properties":{"Category":"HSI","Name":"Woodland Community College","Town":"Woodland","State":"CA","Latitude":38.6584,"Longitude":-121.7342,"Year_Estab":1975,"Comments":""}},
{"type":"Feature","geometry":{"type":"Point","coordinates":[-2161265.3545501903,474564.0129601713]},"properties":{"Category":"HSI","Name":"Yuba College","Town":"Marysville","State":"CA","Latitude":39.1273,"Longitude":-121.5395,"Year_Estab":1927,"Comments":""}},
{"type":"Feature","geometry":{"type":"Point","coordinates":[-863986.1952197485,42128.26334161498]},"properties":{"Category":"HSI","Name":"Adams State University","Town":"Alamoso","State":"CO","Latitude":37.474786,"Longitude":-105.880576,"Year_Estab":1921,"Comments":""}},
{"type":"Feature","geometry":{"type":"Point","coordinates":[-758758.9054590386,281342.06584933493]},"properties":{"Category":"HSI","Name":"CollegeAmerica","Town":"Denver","State":"CO","Latitude":39.6915,"Longitude":-104.9412,"Year_Estab":1964,"Comments":""}},
{"type":"Feature","geometry":{"type":"Point","coordinates":[-741829.7210536388,124111.76956305467]},"properties":{"Category":"HSI","Name":"Colorado State University-Pueblo","Town":"Pueblo","State":"CO","Latitude":38.308506,"Longitude":-104.576082,"Year_Estab":1933,"Comments":""}},
{"type":"Feature","geometry":{"type":"Point","coordinates":[-655692.3540046706,78869.43466769252]},"properties":{"Category":"HSI","Name":"Otero Junior College","Town":"La Junta","State":"CO","Latitude":37.971405,"Longitude":-103.543319,"Year_Estab":1941,"Comments":""}},
{"type":"Feature","geometry":{"type":"Point","coordinates":[-747482.0767905038,119559.74933119491]},"properties":{"Category":"HSI","Name":"Pueblo Community College","Town":"Pueblo","State":"CO","Latitude":38.2635,"Longitude":-104.6363,"Year_Estab":1933,"Comments":""}},
{"type":"Feature","geometry":{"type":"Point","coordinates":[-747918.5116598402,-3083.891984803602]},"properties":{"Category":"HSI","Name":"Trinidad State Junior College","Town":"Trinidad","State":"CO","Latitude":37.1733,"Longitude":-104.5147,"Year_Estab":1925,"Comments":""}},
{"type":"Feature","geometry":{"type":"Point","coordinates":[1906164.9816757983,713313.8244185904]},"properties":{"Category":"HSI","Name":"Capital Community College","Town":"Hartford","State":"CT","Latitude":41.7681,"Longitude":-72.6724,"Year_Estab":1967,"Comments":"1992 later"}},
{"type":"Feature","geometry":{"type":"Point","coordinates":[1880352.2402931876,638580.477299422]},"properties":{"Category":"HSI","Name":"Housatonic Community College","Town":"Bridgeport","State":"CT","Latitude":41.1754,"Longitude":-73.1914,"Year_Estab":1967,"Comments":""}},
{"type":"Feature","geometry":{"type":"Point","coordinates":[1861177.5411157452,625515.8822261626]},"properties":{"Category":"HSI","Name":"Norwalk Community College","Town":"Norwalk","State":"CT","Latitude":41.1025,"Longitude":-73.4522,"Year_Estab":1961,"Comments":""}},
{"type":"Feature","geometry":{"type":"Point","coordinates":[1591505.8336545206,-1159686.433826303]},"properties":{"Category":"HSI","Name":"Barry University","Town":"Miami Shores","State":"FL","Latitude":25.8791,"Longitude":-80.1962,"Year_Estab":1940,"Comments":""}},
{"type":"Feature","geometry":{"type":"Point","coordinates":[1568345.352092456,-1142514.3551885113]},"properties":{"Category":"HSI","Name":"Broward College","Town":"Ford Lauderdale","State":"FL","Latitude":26.0681,"Longitude":-80.3943,"Year_Estab":1959,"Comments":""}},
{"type":"Feature","geometry":{"type":"Point","coordinates":[1577226.459129347,-1171393.8282761779]},"properties":{"Category":"HSI","Name":"Albizu University","Town":"Miami","State":"FL","Latitude":25.7953,"Longitude":-80.3544,"Year_Estab":1966,"Comments":""}},
{"type":"Feature","geometry":{"type":"Point","coordinates":[1588477.3929447362,-1125869.8874613848]},"properties":{"Category":"HSI","Name":"City College","Town":"Fort Lauderdale","State":"FL","Latitude":26.1874,"Longitude":-80.1703,"Year_Estab":1984,"Comments":""}},
{"type":"Feature","geometry":{"type":"Point","coordinates":[1411436.6891707494,-1113472.6643661465]},"properties":{"Category":"HSI","Name":"Florida SouthWestern State College","Town":"Fort Meyers","State":"FL","Latitude":26.5515,"Longitude":-81.889,"Year_Estab":1962,"Comments":""}},
{"type":"Feature","geometry":{"type":"Point","coordinates":[1576100.5352750223,-1175929.1846442223]},"properties":{"Category":"HSI","Name":"Florida International University","Town":"University Park","State":"FL","Latitude":25.7562,"Longitude":-80.3727,"Year_Estab":1965,"Comments":""}},
{"type":"Feature","geometry":{"type":"Point","coordinates":[1366367.5950819855,-955725.5970579144]},"properties":{"Category":"HSI","Name":"Hillsborough Community College","Town":"Hillsborough","State":"FL","Latitude":28.0274,"Longitude":-82.1042,"Year_Estab":1968,"Comments":""}},
{"type":"Feature","geometry":{"type":"Point","coordinates":[1430844.0726630962,-1141168.220203139]},"properties":{"Category":"HSI","Name":"Hodges University","Town":"Naples","State":"FL","Latitude":26.2761,"Longitude":-81.7391,"Year_Estab":1990,"Comments":""}},
{"type":"Feature","geometry":{"type":"Point","coordinates":[1589149.1158361537,-1125912.8789729383]},"properties":{"Category":"HSI","Name":"Keiser University","Town":"Fort Lauderdale","State":"FL","Latitude":26.186,"Longitude":-80.1638,"Year_Estab":1997,"Comments":""}},
{"type":"Feature","geometry":{"type":"Point","coordinates":[1593878.854789318,-1170581.373089131]},"properties":{"Category":"HSI","Name":"Miami Dade College","Town":"Miami","State":"FL","Latitude":25.7776,"Longitude":-80.1909,"Year_Estab":1959,"Comments":""}},
{"type":"Feature","geometry":{"type":"Point","coordinates":[1582887.5401304183,-1138890.6983898003]},"properties":{"Category":"HSI","Name":"Nova Southeastern University","Town":"Fort Lauderdale","State":"FL","Latitude":26.0789,"Longitude":-80.2463,"Year_Estab":1964,"Comments":""}},
{"type":"Feature","geometry":{"type":"Point","coordinates":[1585503.0782613978,-1053263.958488755]},"properties":{"Category":"HSI","Name":"Palm Beach State College","Town":"Lake Worth","State":"FL","Latitude":26.843,"Longitude":-80.0793,"Year_Estab":1933,"Comments":""}},
{"type":"Feature","geometry":{"type":"Point","coordinates":[3229770.707378306,-1586640.5663966741]},"properties":{"Category":"HSI","Name":"Polytechnic University of Puerto Rico","Town":"San Juan","State":"PR","Latitude":18.4223,"Longitude":-66.0559,"Year_Estab":1966,"Comments":""}},
{"type":"Feature","geometry":{"type":"Point","coordinates":[1339539.0803320836,-964512.7028517555]},"properties":{"Category":"HSI","Name":"Remington College","Town":"Heathrow","State":"FL","Latitude":27.9837,"Longitude":-82.386,"Year_Estab":1987,"Comments":""}},
{"type":"Feature","geometry":{"type":"Point","coordinates":[1431851.4064372054,-996922.0666619148]},"properties":{"Category":"HSI","Name":"South Florida State College","Town":"Avon Park","State":"FL","Latitude":27.57,"Longitude":-81.5117,"Year_Estab":1965,"Comments":""}},
{"type":"Feature","geometry":{"type":"Point","coordinates":[1584715.4300067476,-1156005.42320898]},"properties":{"Category":"HSI","Name":"St. Thomas University","Town":"Miami Gardens","State":"FL","Latitude":25.9224,"Longitude":-80.2564,"Year_Estab":1961,"Comments":""}},
{"type":"Feature","geometry":{"type":"Point","coordinates":[1572923.507469107,-1184594.47110359]},"properties":{"Category":"HSI","Name":"Trinity International University","Town":"The Hammocks","State":"FL","Latitude":25.683,"Longitude":-80.4176,"Year_Estab":1897,"Comments":""}},
{"type":"Feature","geometry":{"type":"Point","coordinates":[3237507.8510729577,-1584967.8696805183]},"properties":{"Category":"HSI","Name":"Universidad del Este","Town":"Carolina","State":"PR","Latitude":18.4147,"Longitude":-65.9841,"Year_Estab":1949,"Comments":""}},
{"type":"Feature","geometry":{"type":"Point","coordinates":[3240847.744814705,-1603252.7537598517]},"properties":{"Category":"HSI","Name":"The Universidad del Turabo","Town":"Gurabo","State":"PR","Latitude":18.2419,"Longitude":-66.0069,"Year_Estab":1972,"Comments":""}},
{"type":"Feature","geometry":{"type":"Point","coordinates":[1444713.0769931625,-879528.4414762035]},"properties":{"Category":"HSI","Name":"University of Central Florida","Town":"Orlando","State":"FL","Latitude":28.6024,"Longitude":-81.2001,"Year_Estab":1963,"Comments":""}},
{"type":"Feature","geometry":{"type":"Point","coordinates":[1420379.5964885124,-892413.1154466942]},"properties":{"Category":"HSI","Name":"Valencia College","Town":"Orlando","State":"FL","Latitude":28.5211,"Longitude":-81.4655,"Year_Estab":1967,"Comments":""}},
{"type":"Feature","geometry":{"type":"Point","coordinates":[688466.58725218,520874.32113921456]},"properties":{"Category":"HSI","Name":"City Colleges of Chicago","Town":"Chicago","State":"Illinois","Latitude":41.878692,"Longitude":-87.634949,"Year_Estab":1911,"Comments":""}},
{"type":"Feature","geometry":{"type":"Point","coordinates":[672874.0759789903,522176.19414547086]},"properties":{"Category":"HSI","Name":"Dominican University","Town":"River Forest","State":"Illinois","Latitude":41.9024,"Longitude":-87.8221,"Year_Estab":1901,"Comments":""}},
{"type":"Feature","geometry":{"type":"Point","coordinates":[630881.597339411,531742.6573068863]},"properties":{"Category":"HSI","Name":"Elgin Commmunity College","Town":"Elgin","State":"Illinois","Latitude":42.0189,"Longitude":-88.3208,"Year_Estab":1949,"Comments":""}},
{"type":"Feature","geometry":{"type":"Point","coordinates":[678592.7131881865,513844.6758496659]},"properties":{"Category":"HSI","Name":"Morton College","Town":"Cicero","State":"Illinois","Latitude":41.8238,"Longitude":-87.7617,"Year_Estab":1924,"Comments":""}},
{"type":"Feature","geometry":{"type":"Point","coordinates":[689294.0588411869,521105.5280270176]},"properties":{"Category":"HSI","Name":"National Louis University","Town":"Chicago","State":"Illinois","Latitude":41.8801,"Longitude":-87.6247,"Year_Estab":1886,"Comments":""}},
{"type":"Feature","geometry":{"type":"Point","coordinates":[680640.9594165195,531620.4060004111]},"properties":{"Category":"HSI","Name":"Northeastern Illinois University","Town":"Chicago","State":"Illinois","Latitude":41.9805,"Longitude":-87.7182,"Year_Estab":1867,"Comments":""}},
{"type":"Feature","geometry":{"type":"Point","coordinates":[689125.2631001812,520675.0541911293]},"properties":{"Category":"HSI","Name":"Robert Morris University Illinois","Town":"Chicago","State":"Illinois","Latitude":41.8764,"Longitude":-87.6272,"Year_Estab":1913,"Comments":""}},
{"type":"Feature","geometry":{"type":"Point","coordinates":[683487.2521902254,501130.2287448067]},"properties":{"Category":"HSI","Name":"Saint Xavier University","Town":"Chicago","State":"Illinois","Latitude":41.7068,"Longitude":-87.716,"Year_Estab":1846,"Comments":""}},
{"type":"Feature","geometry":{"type":"Point","coordinates":[685175.4944281538,531063.3798404075]},"properties":{"Category":"HSI","Name":"St. Augustine College","Town":"Chicago","State":"Illinois","Latitude":41.972,"Longitude":-87.6639,"Year_Estab":1980,"Comments":""}},
{"type":"Feature","geometry":{"type":"Point","coordinates":[670958.2114863684,523493.35128495377]},"properties":{"Category":"HSI","Name":"Triton College","Town":"River Grove","State":"Illinois","Latitude":41.9156,"Longitude":-87.8439,"Year_Estab":1964,"Comments":""}},
{"type":"Feature","geometry":{"type":"Point","coordinates":[687351.1797384216,519777.28802581225]},"properties":{"Category":"HSI","Name":"University of Illinois at Chicago","Town":"Chicago","State":"Illinois","Latitude":41.8698,"Longitude":-87.6496,"Year_Estab":1859,"Comments":""}},
{"type":"Feature","geometry":{"type":"Point","coordinates":[621575.9239233903,505900.3188291192]},"properties":{"Category":"HSI","Name":"Waubonsee Community College","Town":"Sugar Grove","State":"Illinois","Latitude":41.7953,"Longitude":-88.4585,"Year_Estab":1966,"Comments":""}},
{"type":"Feature","geometry":{"type":"Point","coordinates":[675158.687362563,528639.4077315954]},"properties":{"Category":"HSI","Name":"Wilbur Wright College","Town":"Chicago","State":"Illinois","Latitude":41.9582,"Longitude":-87.7877,"Year_Estab":1934,"Comments":""}},
{"type":"Feature","geometry":{"type":"Point","coordinates":[702113.5573123789,498758.17657926865]},"properties":{"Category":"HSI","Name":"Calumet College of St. Joseph","Town":"Whiting","State":"Indiana","Latitude":41.671,"Longitude":-87.494,"Year_Estab":1951,"Comments":""}},
{"type":"Feature","geometry":{"type":"Point","coordinates":[-351789.75661904924,38600.119011243805]},"properties":{"Category":"HSI","Name":"Dodge City Community College","Town":"Dodge City","State":"Kansas","Latitude":37.7778,"Longitude":-100.0335,"Year_Estab":1935,"Comments":""}},
{"type":"Feature","geometry":{"type":"Point","coordinates":[115624.7933784053,181530.8861870952]},"properties":{"Category":"HSI","Name":"Donnelly College","Town":"Kansas City","State":"Kansas","Latitude":39.1123,"Longitude":-94.6503,"Year_Estab":1949,"Comments":""}},
{"type":"Feature","geometry":{"type":"Point","coordinates":[-433094.98243181757,-38130.898150418885]},"properties":{"Category":"HSI","Name":"Seward County Community College","Town":"Liberal","State":"Kansas","Latitude":37.0597,"Longitude":-100.9187,"Year_Estab":1967,"Comments":""}},
{"type":"Feature","geometry":{"type":"Point","coordinates":[2006005.2883853596,858062.8018598594]},"properties":{"Category":"HSI","Name":"Northern Essex Community College","Town":"Haverhill","State":"MA","Latitude":42.7967,"Longitude":-71.049,"Year_Estab":1961,"Comments":""}},
{"type":"Feature","geometry":{"type":"Point","coordinates":[1904383.4894699992,752163.4816270377]},"properties":{"Category":"HSI","Name":"Springfield Technical Community College","Town":"Springfield","State":"MA","Latitude":42.1088,"Longitude":-72.5785,"Year_Estab":1967,"Comments":""}},
{"type":"Feature","geometry":{"type":"Point","coordinates":[2017679.2188647415,809832.0666941265]},"properties":{"Category":"HSI","Name":"Urban College of Boston","Town":"Boston","State":"MA","Latitude":42.3529,"Longitude":-71.0642,"Year_Estab":1993,"Comments":""}},
{"type":"Feature","geometry":{"type":"Point","coordinates":[-1703014.504660263,22269.457851741463]},"properties":{"Category":"HSI","Name":"College of Southern Nevada","Town":"Las Vegas","State":"NV","Latitude":36.1554,"Longitude":-115.2325,"Year_Estab":1971,"Comments":""}},
{"type":"Feature","geometry":{"type":"Point","coordinates":[1813517.310790774,596697.9695636434]},"properties":{"Category":"HSI","Name":"Bergen Community College","Town":"Paramus","State":"NJ","Latitude":40.9508,"Longitude":-74.0881,"Year_Estab":1965,"Comments":""}},
{"type":"Feature","geometry":{"type":"Point","coordinates":[1771635.039809519,413555.52068215143]},"properties":{"Category":"HSI","Name":"Cumberland County College","Town":"Vineland","State":"New Jersey","Latitude":39.441,"Longitude":-75.057,"Year_Estab":1966,"Comments":""}},
{"type":"Feature","geometry":{"type":"Point","coordinates":[1811599.937085828,571772.8060621321]},"properties":{"Category":"HSI","Name":"Essex County College","Town":"Newark","State":"New Jersey","Latitude":40.738,"Longitude":-74.1784,"Year_Estab":1966,"Comments":""}},
{"type":"Feature","geometry":{"type":"Point","coordinates":[1819622.1142938463,592003.4900230588]},"properties":{"Category":"HSI","Name":"Fairleigh Dickinson University-Metropolitan Campus","Town":"Teaneck","State":"New Jersey","Latitude":40.897515,"Longitude":-74.029817,"Year_Estab":1942,"Comments":""}},
{"type":"Feature","geometry":{"type":"Point","coordinates":[1815079.5661661616,587410.4729081821]},"properties":{"Category":"HSI","Name":"Felician University","Town":"Lodi","State":"New Jersey","Latitude":40.866869,"Longitude":-74.095296,"Year_Estab":1923,"Comments":""}},
{"type":"Feature","geometry":{"type":"Point","coordinates":[1821206.2562661564,573183.4933855599]},"properties":{"Category":"HSI","Name":"Hudson County Community College","Town":"Jersey City","State":"New Jersey","Latitude":40.73069,"Longitude":-74.06289,"Year_Estab":1974,"Comments":""}},
{"type":"Feature","geometry":{"type":"Point","coordinates":[1808724.172954797,564373.3693007901]},"properties":{"Category":"HSI","Name":"Kean University","Town":"Union","State":"New Jersey","Latitude":40.6795,"Longitude":-74.2319,"Year_Estab":1855,"Comments":""}},
{"type":"Feature","geometry":{"type":"Point","coordinates":[1802161.324076504,542896.8253529472]},"properties":{"Category":"HSI","Name":"Middlesex County College","Town":"Edison","State":"New Jersey","Latitude":40.506,"Longitude":-74.366,"Year_Estab":1964,"Comments":""}},
{"type":"Feature","geometry":{"type":"Point","coordinates":[1819652.6957245222,570374.3214947479]},"properties":{"Category":"HSI","Name":"New Jersey City University","Town":"Jersey City","State":"New Jersey","Latitude":40.709444,"Longitude":-74.088611,"Year_Estab":1927,"Comments":""}},
{"type":"Feature","geometry":{"type":"Point","coordinates":[1807835.0436813673,591500.2482761052]},"properties":{"Category":"HSI","Name":"Passaic County Community College","Town":"Paterson","State":"New Jersey","Latitude":40.917183,"Longitude":-74.168536,"Year_Estab":1968,"Comments":""}},
{"type":"Feature","geometry":{"type":"Point","coordinates":[1784026.779746939,542280.4928903114]},"properties":{"Category":"HSI","Name":"Pillar College","Town":"Newark","State":"New Jersey","Latitude":40.537,"Longitude":-74.578,"Year_Estab":1908,"Comments":""}},
{"type":"Feature","geometry":{"type":"Point","coordinates":[1820579.4050965172,572637.2125434838]},"properties":{"Category":"HSI","Name":"Saint Peter's University","Town":"Jersey City","State":"New Jersey","Latitude":40.727222,"Longitude":-74.071667,"Year_Estab":1872,"Comments":""}},
{"type":"Feature","geometry":{"type":"Point","coordinates":[1801814.0544542829,561409.2023465]},"properties":{"Category":"HSI","Name":"Union County College","Town":"Cranford","State":"New Jersey","Latitude":40.667704,"Longitude":-74.3202,"Year_Estab":1933,"Comments":""}},
{"type":"Feature","geometry":{"type":"Point","coordinates":[1804678.8620550565,594191.5471983599]},"properties":{"Category":"HSI","Name":"William Paterson University","Town":"Wayne","State":"New Jersey","Latitude":40.947,"Longitude":-74.198,"Year_Estab":1855,"Comments":""}},
{"type":"Feature","geometry":{"type":"Point","coordinates":[-958944.1430020037,-218049.35964066535]},"properties":{"Category":"HSI","Name":"Central New Mexico Community College","Town":"Albuquerque","State":"New Mexico","Latitude":35.073889,"Longitude":-106.626389,"Year_Estab":1964,"Comments":""}},
{"type":"Feature","geometry":{"type":"Point","coordinates":[-653140.6119073891,-322210.60393211246]},"properties":{"Category":"HSI","Name":"Clovis Community College","Town":"Clovis","State":"New Mexico","Latitude":34.4022,"Longitude":-103.1668,"Year_Estab":1969,"Comments":""}},
{"type":"Feature","geometry":{"type":"Point","coordinates":[-1005830.5351869672,-527256.9592339154]},"properties":{"Category":"HSI","Name":"Doa Ana Community College","Town":"Las Cruces","State":"New Mexico","Latitude":32.2761,"Longitude":-106.7554,"Year_Estab":1973,"Comments":""}},
{"type":"Feature","geometry":{"type":"Point","coordinates":[-671622.5944106726,-346053.1605212018]},"properties":{"Category":"HSI","Name":"Eastern New Mexico University","Town":"Portales","State":"New Mexico","Latitude":34.176944,"Longitude":-103.348611,"Year_Estab":1927,"Comments":""}},
{"type":"Feature","geometry":{"type":"Point","coordinates":[-787499.0275393103,-433316.0397030134]},"properties":{"Category":"HSI","Name":"Eastern New Mexico UniversityRoswell","Town":"Roswell","State":"New Mexico","Latitude":33.312044,"Longitude":-104.524708,"Year_Estab":1927,"Comments":""}},
{"type":"Feature","geometry":{"type":"Point","coordinates":[-826870.8519592602,-173124.92316978984]},"properties":{"Category":"HSI","Name":"New Mexico Highlands University","Town":"Las Vegas","State":"New Mexico","Latitude":35.596111,"Longitude":-105.220833,"Year_Estab":1893,"Comments":""}},
{"type":"Feature","geometry":{"type":"Point","coordinates":[-996927.4969231549,-327080.2806608658]},"properties":{"Category":"HSI","Name":"New Mexico Institute of Mining and Technology","Town":"Socorro","State":"NM","Latitude":34.0668,"Longitude":-106.9056,"Year_Estab":1889,"Comments":""}},
{"type":"Feature","geometry":{"type":"Point","coordinates":[-1005054.6463672351,-526571.00882487]},"properties":{"Category":"HSI","Name":"New Mexico State University","Town":"Las Cruces","State":"New Mexico","Latitude":32.283,"Longitude":-106.748,"Year_Estab":1888,"Comments":""}},
{"type":"Feature","geometry":{"type":"Point","coordinates":[-921023.690427527,-464338.7385968007]},"properties":{"Category":"HSI","Name":"New Mexico State University Alamogordo","Town":"Alamogordo","State":"New Mexico","Latitude":32.919476,"Longitude":-105.925401,"Year_Estab":1958,"Comments":""}},
{"type":"Feature","geometry":{"type":"Point","coordinates":[-772052.746537187,-532109.3419794161]},"properties":{"Category":"HSI","Name":"New Mexico State University Carlsbad","Town":"Carlsbad","State":"New Mexico","Latitude":32.442306,"Longitude":-104.265583,"Year_Estab":1950,"Comments":""}},
{"type":"Feature","geometry":{"type":"Point","coordinates":[-1066905.7319704597,-194790.81423406117]},"properties":{"Category":"HSI","Name":"New Mexico State University Grants","Town":"Grants","State":"New Mexico","Latitude":35.1665,"Longitude":-107.843,"Year_Estab":1968,"Comments":""}},
{"type":"Feature","geometry":{"type":"Point","coordinates":[-899177.7036594434,-119976.1566338595]},"properties":{"Category":"HSI","Name":"Northern New Mexico College","Town":"Espaola","State":"New Mexico","Latitude":36.002877,"Longitude":-106.084054,"Year_Estab":1909,"Comments":""}},
{"type":"Feature","geometry":{"type":"Point","coordinates":[-896198.524965429,-165056.84669624083]},"properties":{"Category":"HSI","Name":"Santa Fe Community College","Town":"Santa Fe","State":"New Mexico","Latitude":35.6053,"Longitude":-105.9979,"Year_Estab":1983,"Comments":""}},
{"type":"Feature","geometry":{"type":"Point","coordinates":[-958120.2982830534,-217015.7494463399]},"properties":{"Category":"HSI","Name":"University of New Mexico","Town":"Albuquerque","State":"New Mexico","Latitude":35.08389,"Longitude":-106.61861,"Year_Estab":1889,"Comments":""}},
{"type":"Feature","geometry":{"type":"Point","coordinates":[-921438.875723017,-130818.46019082703]},"properties":{"Category":"HSI","Name":"University of New MexicoLos Alamos","Town":"Los Alamos","State":"New Mexico","Latitude":35.88531,"Longitude":-106.31862,"Year_Estab":1980,"Comments":""}},
{"type":"Feature","geometry":{"type":"Point","coordinates":[-668812.645949582,-503355.38879891485]},"properties":{"Category":"HSI","Name":"University of the Southwest","Town":"Hobbs","State":"New Mexico","Latitude":32.774444,"Longitude":-103.188056,"Year_Estab":1962,"Comments":""}},
{"type":"Feature","geometry":{"type":"Point","coordinates":[-1140703.0613103167,-454556.13842866756]},"properties":{"Category":"HSI","Name":"Western New Mexico University","Town":"Silver City","State":"New Mexico","Latitude":32.777017,"Longitude":-108.282565,"Year_Estab":1893,"Comments":""}},
{"type":"Feature","geometry":{"type":"Point","coordinates":[1828042.0953636423,586646.9371859133]},"properties":{"Category":"HSI","Name":"Boricua College","Town":"New York City","State":"New York","Latitude":40.8337,"Longitude":-73.9465,"Year_Estab":1974,"Comments":""}},
{"type":"Feature","geometry":{"type":"Point","coordinates":[1825701.6793159456,572873.2930024667]},"properties":{"Category":"HSI","Name":"Borough of Manhattan Community College","Town":"New York City","State":"New York","Latitude":40.7188,"Longitude":-74.0115,"Year_Estab":1963,"Comments":""}},
{"type":"Feature","geometry":{"type":"Point","coordinates":[1830375.988889346,589822.7067411104]},"properties":{"Category":"HSI","Name":"Bronx Community College","Town":"Bronx","State":"New York","Latitude":40.8565,"Longitude":-73.9106,"Year_Estab":1957,"Comments":""}},
{"type":"Feature","geometry":{"type":"Point","coordinates":[1828166.989338797,585099.9450477511]},"properties":{"Category":"HSI","Name":"City College of New York","Town":"New York City","State":"New York","Latitude":40.82,"Longitude":-73.9493,"Year_Estab":1847,"Comments":""}},
{"type":"Feature","geometry":{"type":"Point","coordinates":[1829551.8858545348,596060.5655249571]},"properties":{"Category":"HSI","Name":"College of Mount Saint Vincent","Town":"Bronx","State":"New York","Latitude":40.9124,"Longitude":-73.903,"Year_Estab":1847,"Comments":""}},
{"type":"Feature","geometry":{"type":"Point","coordinates":[1822211.0185176854,609835.009564708]},"properties":{"Category":"HSI","Name":"Dominican College","Town":"Orangeburg","State":"New York","Latitude":41.0472,"Longitude":-73.9506,"Year_Estab":1952,"Comments":""}},
{"type":"Feature","geometry":{"type":"Point","coordinates":[1827059.0190272962,577117.0644885106]},"properties":{"Category":"HSI","Name":"Stella and Charles Guttman Community College","Town":"New York City","State":"New York","Latitude":40.7529,"Longitude":-73.9841,"Year_Estab":2011,"Comments":""}},
{"type":"Feature","geometry":{"type":"Point","coordinates":[1828260.004924213,579172.6098512728]},"properties":{"Category":"HSI","Name":"Hunter College","Town":"New York City","State":"New York","Latitude":40.7683,"Longitude":-73.9645,"Year_Estab":1870,"Comments":""}},
{"type":"Feature","geometry":{"type":"Point","coordinates":[1826250.5217297694,578940.0490579819]},"properties":{"Category":"HSI","Name":"John Jay College of Criminal Justice","Town":"New York City","State":"New York","Latitude":40.7704,"Longitude":-73.9885,"Year_Estab":1964,"Comments":""}},
{"type":"Feature","geometry":{"type":"Point","coordinates":[1831312.4006526535,577177.9821745837]},"properties":{"Category":"HSI","Name":"LaGuardia Community College","Town":"Long Island City","State":"New York","Latitude":40.7447,"Longitude":-73.9345,"Year_Estab":1968,"Comments":""}},
{"type":"Feature","geometry":{"type":"Point","coordinates":[1831284.7826775433,591971.3123963214]},"properties":{"Category":"HSI","Name":"Lehman College","Town":"Bronx","State":"New York","Latitude":40.8733,"Longitude":-73.8941,"Year_Estab":1967,"Comments":""}},
{"type":"Feature","geometry":{"type":"Point","coordinates":[1829051.257934564,608463.3513620896]},"properties":{"Category":"HSI","Name":"Mercy College","Town":"Dobbs Ferry","State":"New York","Latitude":41.0212084,"Longitude":-73.8745795,"Year_Estab":1950,"Comments":""}},
{"type":"Feature","geometry":{"type":"Point","coordinates":[1828225.0876078242,570787.0280002141]},"properties":{"Category":"HSI","Name":"New York City College of Technology","Town":"Brooklyn","State":"New York","Latitude":40.6955,"Longitude":-73.9879,"Year_Estab":1946,"Comments":""}},
{"type":"Feature","geometry":{"type":"Point","coordinates":[1825698.1537992642,571353.6130797304]},"properties":{"Category":"HSI","Name":"Nyack College","Town":"Nyack","State":"New York","Latitude":40.7056,"Longitude":-74.0157,"Year_Estab":1882,"Comments":""}},
{"type":"Feature","geometry":{"type":"Point","coordinates":[1773639.4502597945,643629.5685537374]},"properties":{"Category":"HSI","Name":"Orange County Community College (SUNY Orange)","Town":"Middletown","State":"New York","Latitude":41.439863,"Longitude":-74.426923,"Year_Estab":1950,"Comments":""}},
{"type":"Feature","geometry":{"type":"Point","coordinates":[1841180.4919337174,578539.4378838977]},"properties":{"Category":"HSI","Name":"Queens College","Town":"Flushing","State":"New York","Latitude":40.7362,"Longitude":-73.8161,"Year_Estab":1937,"Comments":""}},
{"type":"Feature","geometry":{"type":"Point","coordinates":[1834953.3143806146,580698.5296676084]},"properties":{"Category":"HSI","Name":"Vaughn College of Aeronautics and Technology","Town":"Elmherst","State":"New York","Latitude":40.7678,"Longitude":-73.8825,"Year_Estab":1932,"Comments":""}},
{"type":"Feature","geometry":{"type":"Point","coordinates":[1834724.4398172672,615242.3612314574]},"properties":{"Category":"HSI","Name":"Westchester Community College","Town":"Valhalla","State":"New York","Latitude":41.0684,"Longitude":-73.7896,"Year_Estab":1946,"Comments":""}},
{"type":"Feature","geometry":{"type":"Point","coordinates":[982597.3594058913,241882.2078977488]},"properties":{"Category":"HSI","Name":"Union Institute & University","Town":"Cincinnati","State":"Ohio","Latitude":39.127,"Longitude":-84.5,"Year_Estab":1964,"Comments":""}},
{"type":"Feature","geometry":{"type":"Point","coordinates":[1677540.3872070722,495448.7562074717]},"properties":{"Category":"HSI","Name":"Reading Area Community College","Town":"Reading","State":"Pennsylvania","Latitude":40.3347,"Longitude":-75.9346,"Year_Estab":1971,"Comments":""}},
{"type":"Feature","geometry":{"type":"Point","coordinates":[73732.37167470573,-904085.698237095]},"properties":{"Category":"HSI","Name":"Alvin Community College","Town":"Alvin","State":"Texas","Latitude":29.396111,"Longitude":-95.240556,"Year_Estab":1948,"Comments":""}},
{"type":"Feature","geometry":{"type":"Point","coordinates":[-527631.5157315963,-242675.25216253847]},"properties":{"Category":"HSI","Name":"Amarillo College","Town":"Amarillo","State":"Texas","Latitude":35.188336,"Longitude":-101.847089,"Year_Estab":1929,"Comments":""}},
{"type":"Feature","geometry":{"type":"Point","coordinates":[-451022.78451110434,-632585.1853953823]},"properties":{"Category":"HSI","Name":"Angelo State University","Town":"San Angelo","State":"Texas","Latitude":31.740278,"Longitude":-100.7825,"Year_Estab":1928,"Comments":""}},
{"type":"Feature","geometry":{"type":"Point","coordinates":[-167948.71026971008,-805085.1735953465]},"properties":{"Category":"HSI","Name":"Austin Community College District","Town":"Austin","State":"Texas","Latitude":30.2773,"Longitude":-97.7485,"Year_Estab":1973,"Comments":""}},
{"type":"Feature","geometry":{"type":"Point","coordinates":[-247300.90698411036,-906176.9008858483]},"properties":{"Category":"HSI","Name":"Baptist University of the Amricas","Town":"San Antonio","State":"Texas","Latitude":29.35,"Longitude":-98.5461,"Year_Estab":1947,"Comments":""}},
{"type":"Feature","geometry":{"type":"Point","coordinates":[57598.952332953355,-942706.3147823755]},"properties":{"Category":"HSI","Name":"Brazosport College","Town":"Lake Jackson","State":"Texas","Latitude":29.0485,"Longitude":-95.4092,"Year_Estab":1968,"Comments":""}},
{"type":"Feature","geometry":{"type":"Point","coordinates":[-79007.21259141898,-510995.95230912603]},"properties":{"Category":"HSI","Name":"Brookhaven College","Town":"Farmers Branch","State":"Texas","Latitude":32.9296,"Longitude":-96.85,"Year_Estab":1978,"Comments":""}},
{"type":"Feature","geometry":{"type":"Point","coordinates":[-279328.0809078572,-565834.82808882]},"properties":{"Category":"HSI","Name":"Cisco College","Town":"Cisco","State":"Texas","Latitude":32.401789,"Longitude":-98.985691,"Year_Estab":1939,"Comments":""}},
{"type":"Feature","geometry":{"type":"Point","coordinates":[-172499.0083087517,-1009134.8281586133]},"properties":{"Category":"HSI","Name":"Coastal Bend College","Town":"Beeville","State":"Texas","Latitude":28.4353,"Longitude":-97.7566,"Year_Estab":1965,"Comments":""}},
{"type":"Feature","geometry":{"type":"Point","coordinates":[-139328.578996067,-1083889.6094271783]},"properties":{"Category":"HSI","Name":"Del Mar College","Town":"Corpus Cristi","State":"Texas","Latitude":27.7636,"Longitude":-97.4076,"Year_Estab":1935,"Comments":""}},
{"type":"Feature","geometry":{"type":"Point","coordinates":[-61501.30037636238,-523978.35743738525]},"properties":{"Category":"HSI","Name":"Eastfield College","Town":"Mesquite","State":"Texas","Latitude":32.8145,"Longitude":-96.6607,"Year_Estab":1970,"Comments":""}},
{"type":"Feature","geometry":{"type":"Point","coordinates":[-74994.06133735819,-527745.7722518351]},"properties":{"Category":"HSI","Name":"El Centro College","Town":"Dallas","State":"Texas","Latitude":32.7798,"Longitude":-96.8053,"Year_Estab":1966,"Comments":""}},
{"type":"Feature","geometry":{"type":"Point","coordinates":[-988761.3133727703,-585573.7883338705]},"properties":{"Category":"HSI","Name":"El Paso Community College","Town":"El Paso","State":"Texas","Latitude":31.773088,"Longitude":-106.50573,"Year_Estab":1972,"Comments":""}},
{"type":"Feature","geometry":{"type":"Point","coordinates":[115832.23829272456,-916009.8117981125]},"properties":{"Category":"HSI","Name":"Galveston College","Town":"Galveston","State":"Texas","Latitude":29.2846,"Longitude":-94.8085,"Year_Estab":1967,"Comments":""}},
{"type":"Feature","geometry":{"type":"Point","coordinates":[-248911.8124728099,-885245.7209961787]},"properties":{"Category":"HSI","Name":"Hallmark University","Town":"San Antonio","State":"Texas","Latitude":29.5384,"Longitude":-98.5685,"Year_Estab":1969,"Comments":""}},
{"type":"Feature","geometry":{"type":"Point","coordinates":[46889.60283083728,-871093.8838651013]},"properties":{"Category":"HSI","Name":"Houston Baptist University","Town":"Houston","State":"Texas","Latitude":29.6953,"Longitude":-95.5153,"Year_Estab":1960,"Comments":""}},
{"type":"Feature","geometry":{"type":"Point","coordinates":[42988.090800528444,-878753.0632412974]},"properties":{"Category":"HSI","Name":"Houston Community College","Town":"Stafford","State":"Texas","Latitude":29.6264,"Longitude":-95.556,"Year_Estab":1971,"Comments":""}},
{"type":"Feature","geometry":{"type":"Point","coordinates":[-510755.81321049697,-572428.9840830546]},"properties":{"Category":"HSI","Name":"Howard College","Town":"Big Spring","State":"Texas","Latitude":32.250566,"Longitude":-101.451139,"Year_Estab":1945,"Comments":""}},
{"type":"Feature","geometry":{"type":"Point","coordinates":[67617.07178934474,-618548.8755038716]},"properties":{"Category":"HSI","Name":"Jacksonville College","Town":"Jacksonville","State":"TX","Latitude":31.9659,"Longitude":-95.2813,"Year_Estab":1899,"Comments":""}},
{"type":"Feature","geometry":{"type":"Point","coordinates":[-349390.8381802077,-1106702.1866904516]},"properties":{"Category":"HSI","Name":"Laredo College","Town":"Laredo","State":"TX","Latitude":27.5075,"Longitude":-99.5199,"Year_Estab":1947,"Comments":""}},
{"type":"Feature","geometry":{"type":"Point","coordinates":[98963.73506140674,-866333.2766716816]},"properties":{"Category":"HSI","Name":"Lee College","Town":"Baytown","State":"TX","Latitude":29.7345,"Longitude":-94.9765,"Year_Estab":1934,"Comments":""}},
{"type":"Feature","geometry":{"type":"Point","coordinates":[59781.33980867367,-836429.1071127728]},"properties":{"Category":"HSI","Name":"Lone Star College System","Town":"Houston","State":"TX","Latitude":30.0071,"Longitude":-95.3797,"Year_Estab":1973,"Comments":""}},
{"type":"Feature","geometry":{"type":"Point","coordinates":[-110816.58244151779,-660097.6481461506]},"properties":{"Category":"HSI","Name":"McLennan Community College","Town":"Waco","State":"TX","Latitude":31.589,"Longitude":-97.1724,"Year_Estab":1965,"Comments":""}},
{"type":"Feature","geometry":{"type":"Point","coordinates":[-84204.34996511602,-533575.8368635084]},"properties":{"Category":"HSI","Name":"Mountain View College","Town":"Dallas","State":"TX","Latitude":32.7268,"Longitude":-96.9036,"Year_Estab":1970,"Comments":""}},
{"type":"Feature","geometry":{"type":"Point","coordinates":[-89976.27607322867,-517407.9279224202]},"properties":{"Category":"HSI","Name":"North Lake College","Town":"Irving","State":"TX","Latitude":32.8712,"Longitude":-96.9673,"Year_Estab":1977,"Comments":""}},
{"type":"Feature","geometry":{"type":"Point","coordinates":[103818.88708322663,-491251.62395474315]},"properties":{"Category":"HSI","Name":"Northeast Texas Community College","Town":"Mount Pleasant","State":"TX","Latitude":33.1042,"Longitude":-94.8806,"Year_Estab":1984,"Comments":""}},
{"type":"Feature","geometry":{"type":"Point","coordinates":[-262491.0931417416,-892220.6321980394]},"properties":{"Category":"HSI","Name":"Northwest Vista College","Town":"San Antonio","State":"TX","Latitude":29.4721,"Longitude":-98.7065,"Year_Estab":1995,"Comments":""}},
{"type":"Feature","geometry":{"type":"Point","coordinates":[-90275.92446995988,-546846.2043279298]},"properties":{"Category":"HSI","Name":"Northwood University","Town":"Cedar Hill","State":"TX","Latitude":32.6073,"Longitude":-96.9673,"Year_Estab":1968,"Comments":""}},
{"type":"Feature","geometry":{"type":"Point","coordinates":[-246812.16278725327,-897720.712167047]},"properties":{"Category":"HSI","Name":"Our Lady of the Lake University","Town":"San Antonio","State":"TX","Latitude":29.4264,"Longitude":-98.5434,"Year_Estab":1895,"Comments":""}},
{"type":"Feature","geometry":{"type":"Point","coordinates":[-247076.95624384945,-909064.762065284]},"properties":{"Category":"HSI","Name":"Palo Alto College","Town":"San Antonio","State":"TX","Latitude":29.324,"Longitude":-98.543,"Year_Estab":1983,"Comments":""}},
{"type":"Feature","geometry":{"type":"Point","coordinates":[-113030.31944528372,-527743.3646837547]},"properties":{"Category":"HSI","Name":"Remington College","Town":"Fort Worth","State":"TX","Latitude":32.7762,"Longitude":-97.2137,"Year_Estab":1987,"Comments":"Fort Worth, TX/Greenspoint, TX/Webster, TX (Texas Locations)"}},
{"type":"Feature","geometry":{"type":"Point","coordinates":[-242157.04650760526,-895693.3604862522]},"properties":{"Category":"HSI","Name":"San Antonio College","Town":"San Antonio","State":"TX","Latitude":29.4458,"Longitude":-98.496,"Year_Estab":1925,"Comments":""}},
{"type":"Feature","geometry":{"type":"Point","coordinates":[85657.33378303576,-874540.4807563499]},"properties":{"Category":"HSI","Name":"San Jacinto College","Town":"Pasadena","State":"TX","Latitude":29.6617,"Longitude":-95.1149,"Year_Estab":1961,"Comments":"Houston, TX additional campus"}},
{"type":"Feature","geometry":{"type":"Point","coordinates":[-301420.61395120306,-828942.4967019372]},"properties":{"Category":"HSI","Name":"Schreiner University","Town":"Kerrville","State":"TX","Latitude":30.0316,"Longitude":-99.1291,"Year_Estab":1923,"Comments":""}},
{"type":"Feature","geometry":{"type":"Point","coordinates":[-586521.6540255131,-419259.902501734]},"properties":{"Category":"HSI","Name":"South Plains College","Town":"Levelland","State":"TX","Latitude":33.5784,"Longitude":-102.3669,"Year_Estab":1957,"Comments":""}},
{"type":"Feature","geometry":{"type":"Point","coordinates":[-227065.34452574624,-1252595.232597489]},"properties":{"Category":"HSI","Name":"South Texas College","Town":"McAllen","State":"TX","Latitude":26.2164,"Longitude":-98.2533,"Year_Estab":1993,"Comments":""}},
{"type":"Feature","geometry":{"type":"Point","coordinates":[-363820.8739121382,-916775.852295259]},"properties":{"Category":"HSI","Name":"Southwest Texas Junior College","Town":"Uvalde","State":"TX","Latitude":29.2196,"Longitude":-99.7404,"Year_Estab":1946,"Comments":""}},
{"type":"Feature","geometry":{"type":"Point","coordinates":[-124087.5226011328,-569891.2355756853]},"properties":{"Category":"HSI","Name":"Southwestern Adventist University","Town":"Keene","State":"TX","Latitude":32.397,"Longitude":-97.3261,"Year_Estab":1893,"Comments":""}},
{"type":"Feature","geometry":{"type":"Point","coordinates":[-168564.87611848424,-810359.9212248512]},"properties":{"Category":"HSI","Name":"St. Edward's University","Town":"Austin","State":"TX","Latitude":30.2297,"Longitude":-97.7539,"Year_Estab":1877,"Comments":""}},
{"type":"Feature","geometry":{"type":"Point","coordinates":[-248742.97769562772,-894797.3284751456]},"properties":{"Category":"HSI","Name":"St. Mary's University, Texas","Town":"San Antonio","State":"TX","Latitude":29.4523,"Longitude":-98.5641,"Year_Estab":1852,"Comments":""}},
{"type":"Feature","geometry":{"type":"Point","coordinates":[-733265.3932839707,-767507.0976944603]},"properties":{"Category":"HSI","Name":"Sul Ross State University","Town":"Alpine","State":"TX","Latitude":30.3637,"Longitude":-103.6498,"Year_Estab":1917,"Comments":""}},
{"type":"Feature","geometry":{"type":"Point","coordinates":[-129646.64339216349,-521378.6342957206]},"properties":{"Category":"HSI","Name":"Tarrant County Colege","Town":"Fort Worth","State":"TX","Latitude":32.8312,"Longitude":-97.3931,"Year_Estab":1965,"Comments":""}},
{"type":"Feature","geometry":{"type":"Point","coordinates":[-340712.1587995321,-1099956.8225258216]},"properties":{"Category":"HSI","Name":"Texas A&M International University","Town":"Laredo","State":"TX","Latitude":27.5715,"Longitude":-99.435,"Year_Estab":1969,"Comments":""}},
{"type":"Feature","geometry":{"type":"Point","coordinates":[-131142.25664706045,-1089624.5275602583]},"properties":{"Category":"HSI","Name":"Texas A&M University- Corpus Christi","Town":"Corpus Christi","State":"TX","Latitude":27.7127,"Longitude":-97.3241,"Year_Estab":1947,"Comments":""}},
{"type":"Feature","geometry":{"type":"Point","coordinates":[-186851.66198554006,-1109381.7636140175]},"properties":{"Category":"HSI","Name":"Texas A&M University- Kingsville","Town":"Kingsville","State":"TX","Latitude":27.5251,"Longitude":-97.8825,"Year_Estab":1925,"Comments":""}},
{"type":"Feature","geometry":{"type":"Point","coordinates":[-192285.1134202436,-882787.9685100261]},"properties":{"Category":"HSI","Name":"Texas Lutheran University","Town":"Seguin","State":"TX","Latitude":29.5728,"Longitude":-97.9849,"Year_Estab":1891,"Comments":""}},
{"type":"Feature","geometry":{"type":"Point","coordinates":[-187067.22035298828,-847887.0970214792]},"properties":{"Category":"HSI","Name":"Texas State University","Town":"San Marcos","State":"TX","Latitude":29.8884,"Longitude":-97.9384,"Year_Estab":1899,"Comments":""}},
{"type":"Feature","geometry":{"type":"Point","coordinates":[-541530.6249768261,-421502.12998196855]},"properties":{"Category":"HSI","Name":"Texas Tech University","Town":"Lubbock","State":"TX","Latitude":33.5843,"Longitude":-101.8783,"Year_Estab":1923,"Comments":""}},
{"type":"Feature","geometry":{"type":"Point","coordinates":[-104369.97662454516,-477614.15201384947]},"properties":{"Category":"HSI","Name":"Texas Woman's University","Town":"Denton","State":"TX","Latitude":33.2263,"Longitude":-97.1271,"Year_Estab":1901,"Comments":""}},
{"type":"Feature","geometry":{"type":"Point","coordinates":[63615.83572659076,-868265.2083180174]},"properties":{"Category":"HSI","Name":"University of Houston","Town":"Houston","State":"TX","Latitude":29.7199,"Longitude":-95.3422,"Year_Estab":1927,"Comments":""}},
{"type":"Feature","geometry":{"type":"Point","coordinates":[87271.48951572619,-883506.6230890993]},"properties":{"Category":"HSI","Name":"University of Houston- Clear Lake","Town":"Pasadena","State":"TX","Latitude":29.5807,"Longitude":-95.0991,"Year_Estab":1971,"Comments":"Houston, TX additional campus"}},
{"type":"Feature","geometry":{"type":"Point","coordinates":[61907.96400843134,-863108.4977982324]},"properties":{"Category":"HSI","Name":"University of Houston- Downtown","Town":"Houston","State":"TX","Latitude":29.7665,"Longitude":-95.3595,"Year_Estab":1974,"Comments":""}},
{"type":"Feature","geometry":{"type":"Point","coordinates":[-95658.42547771057,-968062.3546785284]},"properties":{"Category":"HSI","Name":"University of Houston- Victoria","Town":"Victoria","State":"TX","Latitude":28.8166,"Longitude":-96.9785,"Year_Estab":1973,"Comments":""}},
{"type":"Feature","geometry":{"type":"Point","coordinates":[58671.85287443489,-866434.8922498841]},"properties":{"Category":"HSI","Name":"University of St. Thomas, Texas","Town":"Houston","State":"TX","Latitude":29.7367,"Longitude":-95.3932,"Year_Estab":1947,"Comments":""}},
{"type":"Feature","geometry":{"type":"Point","coordinates":[-103806.32096436058,-533021.910868112]},"properties":{"Category":"HSI","Name":"University of Texas at Arlington","Town":"Arlington","State":"TX","Latitude":32.7299,"Longitude":-97.114,"Year_Estab":1895,"Comments":""}},
{"type":"Feature","geometry":{"type":"Point","coordinates":[-218948.6089417634,-1242826.9005836416]},"properties":{"Category":"HSI","Name":"University of Texas Rio Grande Valley","Town":"Edinburg","State":"TX","Latitude":26.307,"Longitude":-98.175,"Year_Estab":2013,"Comments":"Brownsville. TX additional campus"}},
{"type":"Feature","geometry":{"type":"Point","coordinates":[-988682.2762497354,-585827.7405427638]},"properties":{"Category":"HSI","Name":"University of Texas at El Paso","Town":"El Paso","State":"TX","Latitude":31.7709,"Longitude":-106.5046,"Year_Estab":1914,"Comments":""}},
{"type":"Feature","geometry":{"type":"Point","coordinates":[-253736.0641755201,-880167.8110151142]},"properties":{"Category":"HSI","Name":"University of Texas at San Antonio","Town":"San Antonio","State":"TX","Latitude":29.583,"Longitude":-98.6197,"Year_Estab":1969,"Comments":""}},
{"type":"Feature","geometry":{"type":"Point","coordinates":[57747.50825346443,-870133.8200418595]},"properties":{"Category":"HSI","Name":"University of Texas Health Science Center","Town":"Houston","State":"TX","Latitude":29.7034,"Longitude":-95.403,"Year_Estab":1959,"Comments":"1972, San Antonio, TX additional campus"}},
{"type":"Feature","geometry":{"type":"Point","coordinates":[-595023.5681931232,-607725.3165490888]},"properties":{"Category":"HSI","Name":"University of Texas of the Permian Basin","Town":"Odessa","State":"TX","Latitude":31.8876,"Longitude":-102.323,"Year_Estab":1973,"Comments":""}},
{"type":"Feature","geometry":{"type":"Point","coordinates":[-239039.295071231,-893368.8594661541]},"properties":{"Category":"HSI","Name":"University of the Incarnate Word","Town":"San Antonio","State":"TX","Latitude":29.4675,"Longitude":-98.4645,"Year_Estab":1881,"Comments":"Alamo Heights, TX additional campus"}},
{"type":"Feature","geometry":{"type":"Point","coordinates":[-95874.97653044671,-968203.987861231]},"properties":{"Category":"HSI","Name":"Victoria College","Town":"Victoria","State":"TX","Latitude":28.8153,"Longitude":-96.9807,"Year_Estab":1925,"Comments":""}},
{"type":"Feature","geometry":{"type":"Point","coordinates":[-457997.37661894236,-527487.0495436024]},"properties":{"Category":"HSI","Name":"Western Texas College","Town":"Snyder","State":"TX","Latitude":32.6788,"Longitude":-100.9139,"Year_Estab":1971,"Comments":""}},
{"type":"Feature","geometry":{"type":"Point","coordinates":[-8336.639758632866,-912389.1295118518]},"properties":{"Category":"HSI","Name":"Wharton County Junior College","Town":"Wharton","State":"TX","Latitude":29.3238,"Longitude":-96.0858,"Year_Estab":1946,"Comments":""}},
{"type":"Feature","geometry":{"type":"Point","coordinates":[-1759834.7531804696,1298449.9054931188]},"properties":{"Category":"HSI","Name":"Big Bend Community College","Town":"Moses Lake","State":"WA","Latitude":47.1847,"Longitude":-119.3309,"Year_Estab":1962,"Comments":""}},
{"type":"Feature","geometry":{"type":"Point","coordinates":[-1861144.0049029216,1231735.511672358]},"properties":{"Category":"HSI","Name":"Heritage University","Town":"Toppenish","State":"WA","Latitude":46.3738,"Longitude":-120.3947,"Year_Estab":1907,"Comments":""}},
{"type":"Feature","geometry":{"type":"Point","coordinates":[-1741400.1220122841,1433549.6139484132]},"properties":{"Category":"HSI","Name":"Wenatchee Valley College","Town":"Wenatchee","State":"WA","Latitude":48.4127,"Longitude":-119.5309,"Year_Estab":1939,"Comments":""}},
{"type":"Feature","geometry":{"type":"Point","coordinates":[-1864928.6144235663,1257201.9334481442]},"properties":{"Category":"HSI","Name":"Yakima Valley College","Town":"Yakima","State":"WA","Latitude":46.5873,"Longitude":-120.5264,"Year_Estab":1928,"Comments":""}},
{"type":"Feature","geometry":{"type":"Point","coordinates":[1073770.4309502942,-351387.6435598042]},"properties":{"Category":"Women's College","Name":"Agnes Scott College","Town":"Decatur","State":"Georgia","Latitude":33.7692,"Longitude":-84.2946,"Year_Estab":1889,"Comments":""}},
{"type":"Feature","geometry":{"type":"Point","coordinates":[651050.8624161973,641616.2109390404]},"properties":{"Category":"Women's College","Name":"Alverno College","Town":"Milwaukee","State":"Wisconsin","Latitude":42.9835,"Longitude":-87.9636,"Year_Estab":1887,"Comments":""}},
{"type":"Feature","geometry":{"type":"Point","coordinates":[1827250.7000629231,583629.2284274651]},"properties":{"Category":"Women's College","Name":"Barnard College","Town":"New York City","State":"New York","Latitude":40.8091,"Longitude":-73.964,"Year_Estab":1889,"Comments":""}},
{"type":"Feature","geometry":{"type":"Point","coordinates":[1905500.1979349232,746343.1128141787]},"properties":{"Category":"Women's College","Name":"Bay Path University","Town":"Longmeadow","State":"Massachusetts","Latitude":42.0559,"Longitude":-72.5826,"Year_Estab":1897,"Comments":""}},
{"type":"Feature","geometry":{"type":"Point","coordinates":[1440837.45216598,-37181.13154473342]},"properties":{"Category":"Women's College","Name":"Bennett College","Town":"Greensboro","State":"North Carolina","Latitude":36.0679,"Longitude":-79.7792,"Year_Estab":1873,"Comments":""}},
{"type":"Feature","geometry":{"type":"Point","coordinates":[1109382.2524715695,-286597.9156432096]},"properties":{"Category":"Women's College","Name":"Brenau University","Town":"Gainsville","State":"Georgia","Latitude":34.3044,"Longitude":-83.8205,"Year_Estab":1878,"Comments":""}},
{"type":"Feature","geometry":{"type":"Point","coordinates":[1736057.7770234868,472450.9383489238]},"properties":{"Category":"Women's College","Name":"Bryn Mawr College","Town":"Bryn Mawr","State":"Pennsylvania","Latitude":40.023,"Longitude":-75.3152,"Year_Estab":1885,"Comments":""}},
{"type":"Feature","geometry":{"type":"Point","coordinates":[1705677.1507517656,530335.1322676502]},"properties":{"Category":"Women's College","Name":"Cedar Crest College","Town":"Allentown","State":"Pennsylvania","Latitude":40.5859,"Longitude":-75.5197,"Year_Estab":1867,"Comments":""}},
{"type":"Feature","geometry":{"type":"Point","coordinates":[-1837.1964250819783,419063.86566781905]},"properties":{"Category":"Women's College","Name":"College of Saint Mary","Town":"Omaha","State":"Nebraska","Latitude":41.2399,"Longitude":-96.0221,"Year_Estab":1923,"Comments":""}},
{"type":"Feature","geometry":{"type":"Point","coordinates":[1366108.486431397,-278911.45411390625]},"properties":{"Category":"Women's College","Name":"Columbia College","Town":"Columbia","State":"South Carolina","Latitude":34.0455,"Longitude":-81.0309,"Year_Estab":1854,"Comments":""}},
{"type":"Feature","geometry":{"type":"Point","coordinates":[1270676.691009972,-190596.14031980187]},"properties":{"Category":"Women's College","Name":"Converse College","Town":"Spartanburg","State":"South Carolina","Latitude":34.956,"Longitude":-81.9186,"Year_Estab":1889,"Comments":""}},
{"type":"Feature","geometry":{"type":"Point","coordinates":[142075.73597441736,39110.203709222376]},"properties":{"Category":"Women's College","Name":"Cottey College","Town":"Nevada","State":"Missouri","Latitude":37.8381,"Longitude":-94.3701,"Year_Estab":1884,"Comments":""}},
{"type":"Feature","geometry":{"type":"Point","coordinates":[1402210.5465593697,102619.92920274474]},"properties":{"Category":"Women's College","Name":"Hollins University","Town":"Hollins","State":"Virginia","Latitude":37.3561,"Longitude":-79.9424,"Year_Estab":1842,"Comments":""}},
{"type":"Feature","geometry":{"type":"Point","coordinates":[808879.855145902,-507813.1706939414]},"properties":{"Category":"Women's College","Name":"Judson College","Town":"Marion","State":"Alabama","Latitude":32.6299,"Longitude":-87.3186,"Year_Estab":1838,"Comments":""}},
{"type":"Feature","geometry":{"type":"Point","coordinates":[1542135.5802219366,-49706.879635925405]},"properties":{"Category":"Women's College","Name":"Meredith College","Town":"Raleigh","State":"North Carolina","Latitude":35.799,"Longitude":-78.6885,"Year_Estab":1891,"Comments":""}},
{"type":"Feature","geometry":{"type":"Point","coordinates":[-2255755.809682469,344467.8915263321]},"properties":{"Category":"Women's College","Name":"Mills College","Town":"Oakland","State":"California","Latitude":37.7827,"Longitude":-122.1878,"Year_Estab":1852,"Comments":""}},
{"type":"Feature","geometry":{"type":"Point","coordinates":[1749494.298352528,467846.66470314376]},"properties":{"Category":"Women's College","Name":"Moore College of Art and Design","Town":"Philadelphia","State":"Pennsylvania","Latitude":39.9569,"Longitude":-75.172,"Year_Estab":1848,"Comments":""}},
{"type":"Feature","geometry":{"type":"Point","coordinates":[1900631.5927485419,767883.7456397908]},"properties":{"Category":"Women's College","Name":"Mount Holyoke College","Town":"South Hadley","State":"Massachusetts","Latitude":42.2533,"Longitude":-72.5761,"Year_Estab":1837,"Comments":""}},
{"type":"Feature","geometry":{"type":"Point","coordinates":[644754.6301000981,651061.9261054238]},"properties":{"Category":"Women's College","Name":"Mount Mary University","Town":"Milwaukee","State":"Wisconsin","Latitude":43.0725,"Longitude":-88.0312,"Year_Estab":1913,"Comments":""}},
{"type":"Feature","geometry":{"type":"Point","coordinates":[1643253.0768820385,375723.7558242632]},"properties":{"Category":"Women's College","Name":"Notre Dame of Maryland University","Town":"Baltimore","State":"Maryland","Latitude":39.3522,"Longitude":-76.6211,"Year_Estab":1873,"Comments":""}},
{"type":"Feature","geometry":{"type":"Point","coordinates":[1799326.8586291645,797784.1439053556]},"properties":{"Category":"Women's College","Name":"Russell Sage College","Town":"Troy","State":"New York","Latitude":42.729,"Longitude":-73.6933,"Year_Estab":1916,"Comments":""}},
{"type":"Feature","geometry":{"type":"Point","coordinates":[222049.83285292145,833911.8669272428]},"properties":{"Category":"Women's College","Name":"St. Catherine University","Town":"Saint Paul","State":"Minnesota","Latitude":44.9253,"Longitude":-93.1828,"Year_Estab":1905,"Comments":""}},
{"type":"Feature","geometry":{"type":"Point","coordinates":[803493.3279419342,512602.94421315007]},"properties":{"Category":"Women's College","Name":"Saint Mary's College","Town":"Notre Dame","State":"Indiana","Latitude":41.7073,"Longitude":-86.2567,"Year_Estab":1844,"Comments":""}},
{"type":"Feature","geometry":{"type":"Point","coordinates":[1399830.383083917,-41931.5856946744]},"properties":{"Category":"Women's College","Name":"Salem College","Town":"Winston-Salem","State":"North Carolina","Latitude":36.0874,"Longitude":-80.2411,"Year_Estab":1772,"Comments":""}},
{"type":"Feature","geometry":{"type":"Point","coordinates":[-1970790.9952888605,-154101.65021222457]},"properties":{"Category":"Women's College","Name":"Scripps College","Town":"Claremont","State":"California","Latitude":34.1039,"Longitude":-117.7102,"Year_Estab":1926,"Comments":""}},
{"type":"Feature","geometry":{"type":"Point","coordinates":[885665.9152729063,130621.74651828408]},"properties":{"Category":"Women's College","Name":"Simmons College","Town":"Boston","State":"Massachusetts","Latitude":38.2395,"Longitude":-85.7648,"Year_Estab":1899,"Comments":""}},
{"type":"Feature","geometry":{"type":"Point","coordinates":[1894010.8212792724,773691.612224374]},"properties":{"Category":"Women's College","Name":"Smith College","Town":"Northampton","State":"Massachusetts","Latitude":42.3181,"Longitude":-72.6372,"Year_Estab":1871,"Comments":""}},
{"type":"Feature","geometry":{"type":"Point","coordinates":[1063337.1391208002,-355239.2413394246]},"properties":{"Category":"Women's College","Name":"Spelman College","Town":"Atlanta","State":"Georgia","Latitude":33.7464,"Longitude":-84.4123,"Year_Estab":1881,"Comments":""}},
{"type":"Feature","geometry":{"type":"Point","coordinates":[315762.5160488688,168810.38874117285]},"properties":{"Category":"Women's College","Name":"Stephens College","Town":"Columbia","State":"Missouri","Latitude":38.9516,"Longitude":-92.3214,"Year_Estab":1833,"Comments":""}},
{"type":"Feature","geometry":{"type":"Point","coordinates":[1472492.6631628033,137862.73738178518]},"properties":{"Category":"Women's College","Name":"Sweet Briar College","Town":"Sweet Briar","State":"Virginia","Latitude":37.5576,"Longitude":-79.0829,"Year_Estab":1901,"Comments":""}},
{"type":"Feature","geometry":{"type":"Point","coordinates":[1620596.1976149124,322510.79864007235]},"properties":{"Category":"Women's College","Name":"Trinity Washington University","Town":"Washington","State":"D.C","Latitude":38.9276,"Longitude":-77.0049,"Year_Estab":1897,"Comments":""}},
{"type":"Feature","geometry":{"type":"Point","coordinates":[2000270.146603104,798316.5637965994]},"properties":{"Category":"Women's College","Name":"Wellesley College","Town":"Wellesley","State":"Massachusetts","Latitude":42.2936,"Longitude":-71.3059,"Year_Estab":1870,"Comments":""}},
{"type":"Feature","geometry":{"type":"Point","coordinates":[1139767.0077613317,-443710.0540352091]},"properties":{"Category":"Women's College","Name":"Wesleyan College","Town":"Macon","State":"Georgia","Latitude":32.8745,"Longitude":-83.7124,"Year_Estab":1836,"Comments":""}},
{"type":"Feature","geometry":{"type":"Point","coordinates":[-760870.1112864454,280321.3920493182]},"properties":{"Category":"Women's College","Name":"University of Denver Colorado Women's College","Town":"Denver","State":"Colorado","Latitude":39.68066,"Longitude":-104.9648,"Year_Estab":1888,"Comments":""}},
{"type":"Feature","geometry":{"type":"Point","coordinates":[-2888982.4053686997,4429922.066045921]},"properties":{"Category":"Tribal College","Name":"Iisavik College","Town":"Utqiagvik","State":"Alaska","Latitude":71.325,"Longitude":-156.6805,"Year_Estab":1996,"Comments":""}},
{"type":"Feature","geometry":{"type":"Point","coordinates":[-1172360.1879471056,-53482.93580501061]},"properties":{"Category":"Tribal College","Name":"Din College","Town":"Tsaile","State":"Arizona","Latitude":36.2939,"Longitude":-109.2162,"Year_Estab":1968,"Comments":""}},
{"type":"Feature","geometry":{"type":"Point","coordinates":[-1471374.2183553332,-494205.05358286016]},"properties":{"Category":"Tribal College","Name":"Tohono O'odham Community College","Town":"Sells","State":"Arizona","Latitude":31.9898,"Longitude":-111.7154,"Year_Estab":1998,"Comments":""}},
{"type":"Feature","geometry":{"type":"Point","coordinates":[65840.48717954225,161417.1203921251]},"properties":{"Category":"Tribal College","Name":"Haskell Indian Nations University","Town":"Lawrence","State":"Kansas","Latitude":38.9378,"Longitude":-95.2333,"Year_Estab":1884,"Comments":""}},
{"type":"Feature","geometry":{"type":"Point","coordinates":[875680.7474971322,1053063.9800424958]},"properties":{"Category":"Tribal College","Name":"Bay Mills Community College","Town":"Brimley","State":"Michigan","Latitude":46.4547,"Longitude":-84.6066,"Year_Estab":1981,"Comments":""}},
{"type":"Feature","geometry":{"type":"Point","coordinates":[573802.275838147,1059458.5667361822]},"properties":{"Category":"Tribal College","Name":"Keweenaw Bay Ojibwa Community College","Town":"Baraga","State":"Michigan","Latitude":46.7825,"Longitude":-88.507299,"Year_Estab":1975,"Comments":""}},
{"type":"Feature","geometry":{"type":"Point","coordinates":[903523.8636340133,737326.841620639]},"properties":{"Category":"Tribal College","Name":"Saginaw Chippewa Tribal College","Town":"Mount Pleasant","State":"Michigan","Latitude":43.6071,"Longitude":-84.7325,"Year_Estab":1998,"Comments":""}},
{"type":"Feature","geometry":{"type":"Point","coordinates":[272337.09423625015,1031622.6071250038]},"properties":{"Category":"Tribal College","Name":"Fond du Lac Tribal and Community College","Town":"Cloquet","State":"Minnesota","Latitude":46.6896,"Longitude":-92.4517,"Year_Estab":1987,"Comments":""}},
{"type":"Feature","geometry":{"type":"Point","coordinates":[102396.57156277244,1105389.2807369623]},"properties":{"Category":"Tribal College","Name":"Leech Lake Tribal College","Town":"Cass Lake","State":"Minnesota","Latitude":47.3957,"Longitude":-94.6517,"Year_Estab":1990,"Comments":""}},
{"type":"Feature","geometry":{"type":"Point","coordinates":[74637.30536133706,1158527.87622072]},"properties":{"Category":"Tribal College","Name":"Red Lake Nation College","Town":"Red Lake","State":"Minnesota","Latitude":47.88,"Longitude":-95.0099,"Year_Estab":1987,"Comments":""}},
{"type":"Feature","geometry":{"type":"Point","coordinates":[3498.426441812717,1096009.3774293698]},"properties":{"Category":"Tribal College","Name":"White Earth Tribal and Community College","Town":"Mahnomen","State":"Minnesota","Latitude":47.3174,"Longitude":-95.954,"Year_Estab":1997,"Comments":""}},
{"type":"Feature","geometry":{"type":"Point","coordinates":[-949936.356859628,1288545.6389744412]},"properties":{"Category":"Tribal College","Name":"Aaniiih Nakoda College","Town":"Harlem","State":"Montana","Latitude":48.4839,"Longitude":-108.7577,"Year_Estab":1984,"Comments":""}},
{"type":"Feature","geometry":{"type":"Point","coordinates":[-1262218.2942015422,1345431.6274006823]},"properties":{"Category":"Tribal College","Name":"Blackfeet Community College","Town":"Browning","State":"Montana","Latitude":48.5519,"Longitude":-113.0093,"Year_Estab":1974,"Comments":""}},
{"type":"Feature","geometry":{"type":"Point","coordinates":[-830200.578068847,955093.3018432306]},"properties":{"Category":"Tribal College","Name":"Chief Dull Knife College","Town":"Lame Deer","State":"Montana","Latitude":45.6253,"Longitude":-106.6644,"Year_Estab":1975,"Comments":""}},
{"type":"Feature","geometry":{"type":"Point","coordinates":[-689438.6926609026,1217271.8741608616]},"properties":{"Category":"Tribal College","Name":"Fort Peck Community College","Town":"Poplar","State":"Montana","Latitude":48.1136,"Longitude":-105.193,"Year_Estab":1978,"Comments":""}},
{"type":"Feature","geometry":{"type":"Point","coordinates":[-891899.9865054849,959913.0604108209]},"properties":{"Category":"Tribal College","Name":"Little Big Horn College","Town":"Crow Agency","State":"Montana","Latitude":45.6039,"Longitude":-107.457,"Year_Estab":1980,"Comments":""}},
{"type":"Feature","geometry":{"type":"Point","coordinates":[-1363000.956715601,1257234.3975225296]},"properties":{"Category":"Tribal College","Name":"Salish Kootenai College","Town":"Pablo","State":"Montana","Latitude":47.5975,"Longitude":-114.1118,"Year_Estab":1977,"Comments":""}},
{"type":"Feature","geometry":{"type":"Point","coordinates":[-1035371.187460784,1278988.139564829]},"properties":{"Category":"Tribal College","Name":"Stone Child College","Town":"Box Elder","State":"Montana","Latitude":48.2896,"Longitude":-109.8709,"Year_Estab":1984,"Comments":""}},
{"type":"Feature","geometry":{"type":"Point","coordinates":[-38394.601290808474,530570.9665185977]},"properties":{"Category":"Tribal College","Name":"Little Priest Tribal College","Town":"Winnebago","State":"Nebraska","Latitude":42.2356,"Longitude":-96.4683,"Year_Estab":1996,"Comments":""}},
{"type":"Feature","geometry":{"type":"Point","coordinates":[-28883.949814111707,517243.37868395634]},"properties":{"Category":"Tribal College","Name":"Nebraska Indian Community College","Town":"Macy","State":"Nebraska","Latitude":42.1168,"Longitude":-96.3517,"Year_Estab":1973,"Comments":""}},
{"type":"Feature","geometry":{"type":"Point","coordinates":[-897658.1583273031,-167075.2203241419]},"properties":{"Category":"Tribal College","Name":"Institute of American Indian Arts","Town":"Santa Fe","State":"New Mexico","Latitude":35.586,"Longitude":-106.0117,"Year_Estab":1962,"Comments":""}},
{"type":"Feature","geometry":{"type":"Point","coordinates":[-1086757.274336489,-133499.66296111234]},"properties":{"Category":"Tribal College","Name":"Navajo Technical University","Town":"Crownpoint","State":"New Mexico","Latitude":35.6874,"Longitude":-108.1475,"Year_Estab":1979,"Comments":""}},
{"type":"Feature","geometry":{"type":"Point","coordinates":[-961172.4615306418,-206401.81557356007]},"properties":{"Category":"Tribal College","Name":"Southwestern Indian Polytechnic Institute","Town":"Albuquerque","State":"New Mexico","Latitude":35.1751,"Longitude":-106.6653,"Year_Estab":1971,"Comments":""}},
{"type":"Feature","geometry":{"type":"Point","coordinates":[-225050.84160800365,1172500.9964200202]},"properties":{"Category":"Tribal College","Name":"Cankdeska Cikana Community College","Town":"Fort Totten","State":"North Dakota","Latitude":47.9781,"Longitude":-98.9904,"Year_Estab":1970,"Comments":""}},
{"type":"Feature","geometry":{"type":"Point","coordinates":[-486824.08858850383,1186119.824720228]},"properties":{"Category":"Tribal College","Name":"Fort Berthold Community College","Town":"New Town","State":"North Dakota","Latitude":47.9833,"Longitude":-102.4732,"Year_Estab":1973,"Comments":""}},
{"type":"Feature","geometry":{"type":"Point","coordinates":[-361900.9016398358,968528.4266586788]},"properties":{"Category":"Tribal College","Name":"Sitting Bull College","Town":"Fort Yates","State":"North Dakota","Latitude":46.0861,"Longitude":-100.6732,"Year_Estab":1973,"Comments":""}},
{"type":"Feature","geometry":{"type":"Point","coordinates":[-278278.4792998317,1274171.4160985881]},"properties":{"Category":"Tribal College","Name":"Turtle Mountain Community College","Town":"Belcourt","State":"North Dakota","Latitude":48.8839,"Longitude":-99.7503,"Year_Estab":1972,"Comments":""}},
{"type":"Feature","geometry":{"type":"Point","coordinates":[-364881.78073982225,1044450.9541531429]},"properties":{"Category":"Tribal College","Name":"United Tribes Technical College","Town":"Bismarck","State":"North Dakota","Latitude":46.7688,"Longitude":-100.7607,"Year_Estab":1969,"Comments":""}},
{"type":"Feature","geometry":{"type":"Point","coordinates":[1518827.5654169787,-180081.04949000478]},"properties":{"Category":"Tribal College","Name":"University of North Carolina at Pembroke","Town":"Pembroke","State":"North Carolina","Latitude":34.6899,"Longitude":-79.2006,"Year_Estab":1887,"Comments":""}},
{"type":"Feature","geometry":{"type":"Point","coordinates":[59576.815583909585,-192844.67535889335]},"properties":{"Category":"Tribal College","Name":"Bacone College","Town":"Muskogee","State":"Oklahoma","Latitude":35.7767,"Longitude":-95.3351,"Year_Estab":1880,"Comments":""}},
{"type":"Feature","geometry":{"type":"Point","coordinates":[5727.825587907237,-208853.73211825825]},"properties":{"Category":"Tribal College","Name":"College of the Muscogee Nation","Town":"Okmulgee","State":"Oklahoma","Latitude":35.635552,"Longitude":-95.936201,"Year_Estab":2004,"Comments":""}},
{"type":"Feature","geometry":{"type":"Point","coordinates":[-71498.22929763651,-129885.93092262745]},"properties":{"Category":"Tribal College","Name":"Pawnee Nation College","Town":"Pawnee","State":"Oklahoma","Latitude":36.338057,"Longitude":-96.803902,"Year_Estab":2004,"Comments":""}},
{"type":"Feature","geometry":{"type":"Point","coordinates":[-502978.327277366,673320.5096774073]},"properties":{"Category":"Tribal College","Name":"Oglala Lakota College","Town":"Kyle","State":"South Dakota","Latitude":43.3661,"Longitude":-102.2403,"Year_Estab":1971,"Comments":""}},
{"type":"Feature","geometry":{"type":"Point","coordinates":[-373082.6563759084,658373.456723012]},"properties":{"Category":"Tribal College","Name":"Sinte Gleska University","Town":"Mission","State":"South Dakota","Latitude":43.2989,"Longitude":-100.6227,"Year_Estab":1970,"Comments":""}},
{"type":"Feature","geometry":{"type":"Point","coordinates":[-82822.08086753526,901969.1848345855]},"properties":{"Category":"Tribal College","Name":"Sisseton Wahpeton College","Town":"Sisseton","State":"South Dakota","Latitude":45.5627,"Longitude":-97.0607,"Year_Estab":1979,"Comments":""}},
{"type":"Feature","geometry":{"type":"Point","coordinates":[-1952349.5049824081,1534048.2749814577]},"properties":{"Category":"Tribal College","Name":"Northwest Indian College","Town":"Bellingham","State":"Washington","Latitude":48.7946,"Longitude":-122.6145,"Year_Estab":1973,"Comments":""}},
{"type":"Feature","geometry":{"type":"Point","coordinates":[627597.0246007938,806971.8256524839]},"properties":{"Category":"Tribal College","Name":"College of Menominee Nation","Town":"Keshena","State":"Wisconsin","Latitude":44.478,"Longitude":-88.0821,"Year_Estab":1993,"Comments":""}},
{"type":"Feature","geometry":{"type":"Point","coordinates":[359707.2923860694,952474.8486920157]},"properties":{"Category":"Tribal College","Name":"Lac Courte Oreilles Ojibwa Community College","Town":"Hayward","State":"Wisconsin","Latitude":45.9426,"Longitude":-91.3652,"Year_Estab":1982,"Comments":""}},
{"type":"Feature","geometry":{"type":"Point","coordinates":[-1028531.4346452892,680847.767147176]},"properties":{"Category":"Tribal College","Name":"Wind River Tribal College","Town":"Ethete","State":"Wyoming","Latitude":42.964392,"Longitude":-108.715208,"Year_Estab":1997,"Comments":""}},
{"type":"Feature","geometry":{"type":"Point","coordinates":[854567.2656887003,-261631.4494510051]},"properties":{"Category":"HBCU","Name":"Alabama A&M University","Town":"Normal","State":"Alabama","Latitude":34.784765,"Longitude":-86.56995,"Year_Estab":1875,"Comments":""}},
{"type":"Feature","geometry":{"type":"Point","coordinates":[907027.6428696038,-528112.5540258884]},"properties":{"Category":"HBCU","Name":"Alabama State University","Town":"Montgomery","State":"Alabama","Latitude":32.363698,"Longitude":-86.294323,"Year_Estab":1867,"Comments":""}},
{"type":"Feature","geometry":{"type":"Point","coordinates":[1118426.7912471876,-593096.8420400117]},"properties":{"Category":"HBCU","Name":"Albany State University","Town":"Albany","State":"Georgia","Latitude":31.569279,"Longitude":-84.139952,"Year_Estab":1903,"Comments":""}},
{"type":"Feature","geometry":{"type":"Point","coordinates":[457834.36017528246,-617310.5433429442]},"properties":{"Category":"HBCU","Name":"Alcorn State University","Town":"Lorman","State":"Mississippi","Latitude":31.87414,"Longitude":-91.137131,"Year_Estab":1871,"Comments":""}},
{"type":"Feature","geometry":{"type":"Point","coordinates":[1367719.1928746083,-282562.068827305]},"properties":{"Category":"HBCU","Name":"Allen University","Town":"Columbia","State":"South Carolina","Latitude":34.010979,"Longitude":-81.019795,"Year_Estab":1870,"Comments":""}},
{"type":"Feature","geometry":{"type":"Point","coordinates":[819336.0969178244,-105599.31827026792]},"properties":{"Category":"HBCU","Name":"American Baptist College","Town":"Nashville","State":"Tennessee","Latitude":36.202841,"Longitude":-86.789931,"Year_Estab":1924,"Comments":""}},
{"type":"Feature","geometry":{"type":"Point","coordinates":[336930.45808926714,-303046.7477116119]},"properties":{"Category":"HBCU","Name":"Arkansas Baptist College","Town":"Little Rock","State":"Arkansas","Latitude":34.73506,"Longitude":-92.289563,"Year_Estab":1884,"Comments":""}},
{"type":"Feature","geometry":{"type":"Point","coordinates":[1381809.462765075,-122170.73868056014]},"properties":{"Category":"HBCU","Name":"Barber-Scotia College","Town":"Concord","State":"North Carolina","Latitude":35.406624,"Longitude":-80.585604,"Year_Estab":1867,"Comments":""}},
{"type":"Feature","geometry":{"type":"Point","coordinates":[1367629.9908247783,-282354.7875506859]},"properties":{"Category":"HBCU","Name":"Benedict College","Town":"Columbia","State":"South Carolina","Latitude":34.012936,"Longitude":-81.020401,"Year_Estab":1870,"Comments":""}},
{"type":"Feature","geometry":{"type":"Point","coordinates":[1440828.0019318373,-37174.123790726066]},"properties":{"Category":"HBCU","Name":"Bennett College","Town":"Greensboro","State":"North Carolina","Latitude":36.067976,"Longitude":-79.779291,"Year_Estab":1873,"Comments":""}},
{"type":"Feature","geometry":{"type":"Point","coordinates":[1450468.640260877,-810417.9578552116]},"properties":{"Category":"HBCU","Name":"Bethune-Cookman University","Town":"Daytona Beach","State":"Florida","Latitude":29.211038,"Longitude":-81.0315,"Year_Estab":1904,"Comments":""}},
{"type":"Feature","geometry":{"type":"Point","coordinates":[758338.2239132947,-728369.5560110286]},"properties":{"Category":"HBCU","Name":"Bishop State Community College","Town":"Mobile","State":"Alabama","Latitude":30.696295,"Longitude":-88.055781,"Year_Estab":1927,"Comments":""}},
{"type":"Feature","geometry":{"type":"Point","coordinates":[1291612.3744930096,74438.9541393416]},"properties":{"Category":"HBCU","Name":"Bluefield State College","Town":"Bluefield","State":"West Virginia","Latitude":37.267257,"Longitude":-81.237467,"Year_Estab":1895,"Comments":""}},
{"type":"Feature","geometry":{"type":"Point","coordinates":[1639195.110702385,336786.42095555086]},"properties":{"Category":"HBCU","Name":"Bowie State University","Town":"Bowie","State":"Maryland","Latitude":39.019241,"Longitude":-76.75935,"Year_Estab":1865,"Comments":""}},
{"type":"Feature","geometry":{"type":"Point","coordinates":[1027106.3685008403,314005.44760309067]},"properties":{"Category":"HBCU","Name":"Central State University","Town":"Wilberforce","State":"Ohio","Latitude":39.716355,"Longitude":-83.877447,"Year_Estab":1887,"Comments":""}},
{"type":"Feature","geometry":{"type":"Point","coordinates":[1720519.619489334,458740.47515142616]},"properties":{"Category":"HBCU","Name":"Cheyney University of Pennsylvania","Town":"Cheyney","State":"Pennsylvania","Latitude":39.933288,"Longitude":-75.529273,"Year_Estab":1837,"Comments":""}},
{"type":"Feature","geometry":{"type":"Point","coordinates":[1391883.0177878346,-336637.4142527878]},"properties":{"Category":"HBCU","Name":"Claflin University","Town":"Orangeburg","State":"South Carolina","Latitude":33.498891,"Longitude":-80.853182,"Year_Estab":1869,"Comments":""}},
{"type":"Feature","geometry":{"type":"Point","coordinates":[1063364.0136755197,-354653.1255821157]},"properties":{"Category":"HBCU","Name":"Clark Atlanta University","Town":"Atlanta","State":"Georgia","Latitude":33.751578,"Longitude":-84.411235,"Year_Estab":1865,"Comments":""}},
{"type":"Feature","geometry":{"type":"Point","coordinates":[1349815.5427694882,-183239.74728401564]},"properties":{"Category":"HBCU","Name":"Clinton Junior College","Town":"Rock Hill","State":"South Carolina","Latitude":34.913335,"Longitude":-81.04286,"Year_Estab":1894,"Comments":""}},
{"type":"Feature","geometry":{"type":"Point","coordinates":[496100.0975144014,-349294.19279402494]},"properties":{"Category":"HBCU","Name":"Coahoma Community College","Town":"Coahoma County","State":"Mississippi","Latitude":34.253514,"Longitude":-90.569003,"Year_Estab":1924,"Comments":""}},
{"type":"Feature","geometry":{"type":"Point","coordinates":[838987.0915187433,-527902.8172813114]},"properties":{"Category":"HBCU","Name":"Concordia College, Alabama","Town":"Selma","State":"Alabama","Latitude":32.425477,"Longitude":-87.01768,"Year_Estab":1922,"Comments":""}},
{"type":"Feature","geometry":{"type":"Point","coordinates":[1641062.3877888615,370744.6979646124]},"properties":{"Category":"HBCU","Name":"Coppin State University","Town":"Baltimore","State":"Maryland","Latitude":39.312647,"Longitude":-76.658013,"Year_Estab":1900,"Comments":""}},
{"type":"Feature","geometry":{"type":"Point","coordinates":[1737318.9358111275,376712.98743067123]},"properties":{"Category":"HBCU","Name":"Delaware State University","Town":"Dover","State":"Delaware","Latitude":39.186204,"Longitude":-75.542381,"Year_Estab":1891,"Comments":""}},
{"type":"Feature","geometry":{"type":"Point","coordinates":[1370293.9940334402,-361226.7199798543]},"properties":{"Category":"HBCU","Name":"Denmark Technical College","Town":"Denmark","State":"South Carolina","Latitude":33.311843,"Longitude":-81.125801,"Year_Estab":1947,"Comments":""}},
{"type":"Feature","geometry":{"type":"Point","coordinates":[571566.0548212022,-819934.1798570007]},"properties":{"Category":"HBCU","Name":"Dillard University","Town":"New Orleans","State":"Louisiana","Latitude":29.996649,"Longitude":-90.066223,"Year_Estab":1869,"Comments":""}},
{"type":"Feature","geometry":{"type":"Point","coordinates":[1368905.8136663667,-695951.7992970888]},"properties":{"Category":"HBCU","Name":"Edward Waters College","Town":"Jacksonville","State":"Florida","Latitude":30.343699,"Longitude":-81.683698,"Year_Estab":1866,"Comments":""}},
{"type":"Feature","geometry":{"type":"Point","coordinates":[1748415.8233133743,46110.97571765445]},"properties":{"Category":"HBCU","Name":"Elizabeth City State University","Town":"Elizabeth City","State":"North Carolina","Latitude":36.281169,"Longitude":-76.214,"Year_Estab":1891,"Comments":""}},
{"type":"Feature","geometry":{"type":"Point","coordinates":[1538685.9735725005,-132812.36069210432]},"properties":{"Category":"HBCU","Name":"Fayetteville State University","Town":"Fayetteville","State":"North Carolina","Latitude":35.074221,"Longitude":-78.8925,"Year_Estab":1867,"Comments":""}},
{"type":"Feature","geometry":{"type":"Point","coordinates":[818509.5789909346,-109676.37755836733]},"properties":{"Category":"HBCU","Name":"Fisk University","Town":"Nashville","State":"Tennessee","Latitude":36.167322,"Longitude":-86.803585,"Year_Estab":1866,"Comments":""}},
{"type":"Feature","geometry":{"type":"Point","coordinates":[1120271.4434586512,-721497.8873536605]},"properties":{"Category":"HBCU","Name":"Florida A&M University","Town":"Tallahassee","State":"Florida","Latitude":30.421464,"Longitude":-84.287542,"Year_Estab":1887,"Comments":""}},
{"type":"Feature","geometry":{"type":"Point","coordinates":[1583324.4551702493,-1156708.937386319]},"properties":{"Category":"HBCU","Name":"Florida Memorial University","Town":"Miami Gardens","State":"Florida","Latitude":25.918167,"Longitude":-80.271114,"Year_Estab":1879,"Comments":""}},
{"type":"Feature","geometry":{"type":"Point","coordinates":[1127560.0334199734,-483300.3304816503]},"properties":{"Category":"HBCU","Name":"Fort Valley State University","Town":"Fort Valley","State":"Georgia","Latitude":32.536514,"Longitude":-83.896633,"Year_Estab":1895,"Comments":""}},
{"type":"Feature","geometry":{"type":"Point","coordinates":[916148.8445969239,-344199.5041022785]},"properties":{"Category":"HBCU","Name":"Gadsden State Community College","Town":"Gadsden","State":"Alabama","Latitude":33.993924,"Longitude":-85.990902,"Year_Estab":1925,"Comments":""}},
{"type":"Feature","geometry":{"type":"Point","coordinates":[306447.4923455714,-551613.9950410593]},"properties":{"Category":"HBCU","Name":"Grambling State University","Town":"Grambling","State":"Louisiana","Latitude":32.521237,"Longitude":-92.719424,"Year_Estab":1901,"Comments":""}},
{"type":"Feature","geometry":{"type":"Point","coordinates":[1720852.44993916,125215.2100487696]},"properties":{"Category":"HBCU","Name":"Hampton University","Town":"Hampton","State":"Virginia","Latitude":37.022822,"Longitude":-76.334468,"Year_Estab":1868,"Comments":""}},
{"type":"Feature","geometry":{"type":"Point","coordinates":[497760.53291654435,142151.15871333424]},"properties":{"Category":"HBCU","Name":"Harris-Stowe State University","Town":"St. Louis","State":"Missouri","Latitude":38.633291,"Longitude":-90.22427,"Year_Estab":1857,"Comments":""}},
{"type":"Feature","geometry":{"type":"Point","coordinates":[505101.0060152664,-595471.0263315011]},"properties":{"Category":"HBCU","Name":"Hinds Community College at Utica","Town":"Utica","State":"Mississippi","Latitude":32.047038,"Longitude":-90.622997,"Year_Estab":1903,"Comments":""}},
{"type":"Feature","geometry":{"type":"Point","coordinates":[1619482.284210565,321720.181042728]},"properties":{"Category":"HBCU","Name":"Howard University","Town":"Washington","State":"DC","Latitude":38.922659,"Longitude":-77.019438,"Year_Estab":1867,"Comments":""}},
{"type":"Feature","geometry":{"type":"Point","coordinates":[-165456.6760018772,-806550.6533397492]},"properties":{"Category":"HBCU","Name":"Huston-Tillotson University","Town":"Austin","State":"Texas","Latitude":30.264514,"Longitude":-97.722285,"Year_Estab":1875,"Comments":""}},
{"type":"Feature","geometry":{"type":"Point","coordinates":[1063486.8985980682,-354328.75456852466]},"properties":{"Category":"HBCU","Name":"Interdenominational Theological Center","Town":"Atlanta","State":"Georgia","Latitude":33.754326,"Longitude":-84.40948,"Year_Estab":1958,"Comments":""}},
{"type":"Feature","geometry":{"type":"Point","coordinates":[854414.7117813966,-263093.9468766283]},"properties":{"Category":"HBCU","Name":"J. F. Drake State Technical College","Town":"Huntsville","State":"Alabama","Latitude":34.77189,"Longitude":-86.573218,"Year_Estab":1961,"Comments":""}},
{"type":"Feature","geometry":{"type":"Point","coordinates":[542489.5097353185,-565375.7961495947]},"properties":{"Category":"HBCU","Name":"Jackson State University","Town":"Jackson","State":"Mississippi","Latitude":32.296897,"Longitude":-90.206422,"Year_Estab":1877,"Comments":""}},
{"type":"Feature","geometry":{"type":"Point","coordinates":[76548.78158715086,-548988.9786264244]},"properties":{"Category":"HBCU","Name":"Jarvis Christian College","Town":"Hawkins","State":"Texas","Latitude":32.589246,"Longitude":-95.179989,"Year_Estab":1912,"Comments":""}},
{"type":"Feature","geometry":{"type":"Point","coordinates":[1360663.6207028844,-144189.94646159373]},"properties":{"Category":"HBCU","Name":"Johnson C. Smith University","Town":"Charlotte","State":"North Carolina","Latitude":35.242667,"Longitude":-80.856288,"Year_Estab":1867,"Comments":""}},
{"type":"Feature","geometry":{"type":"Point","coordinates":[964488.0759747704,135098.9259374477]},"properties":{"Category":"HBCU","Name":"Kentucky State University","Town":"Fankfort","State":"Kentucky","Latitude":38.200256,"Longitude":-84.855839,"Year_Estab":1886,"Comments":""}},
{"type":"Feature","geometry":{"type":"Point","coordinates":[1074654.2101700716,-103108.15517099015]},"properties":{"Category":"HBCU","Name":"Knoxville College","Town":"Knoxville","State":"Tennessee","Latitude":35.970361,"Longitude":-83.943482,"Year_Estab":1875,"Comments":""}},
{"type":"Feature","geometry":{"type":"Point","coordinates":[645246.9986735786,-185291.03157931566]},"properties":{"Category":"HBCU","Name":"Lane College","Town":"Jackson","State":"Tennessee","Latitude":35.627784,"Longitude":-88.805985,"Year_Estab":1882,"Comments":""}},
{"type":"Feature","geometry":{"type":"Point","coordinates":[-112901.96560020147,-173366.90197312087]},"properties":{"Category":"HBCU","Name":"Langston University","Town":"Langston","State":"Oklahoma","Latitude":35.945815,"Longitude":-97.262886,"Year_Estab":1897,"Comments":""}},
{"type":"Feature","geometry":{"type":"Point","coordinates":[840007.5165002729,-412877.3924020007]},"properties":{"Category":"HBCU","Name":"Lawson State Community College","Town":"Bessemer","State":"Alabama","Latitude":33.450725,"Longitude":-86.889115,"Year_Estab":1949,"Comments":""}},
{"type":"Feature","geometry":{"type":"Point","coordinates":[538803.6343250307,-249869.3152060043]},"properties":{"Category":"HBCU","Name":"LeMoyne-Owen College","Town":"Memphis","State":"Tennessee","Latitude":35.117971,"Longitude":-90.034439,"Year_Estab":1862,"Comments":""}},
{"type":"Feature","geometry":{"type":"Point","coordinates":[1690515.00225042,437791.99039017875]},"properties":{"Category":"HBCU","Name":"Lincoln University","Town":"Chester County","State":"Pennsylvania","Latitude":39.80726,"Longitude":-75.927493,"Year_Estab":1854,"Comments":""}},
{"type":"Feature","geometry":{"type":"Point","coordinates":[330394.100689095,125790.41249139886]},"properties":{"Category":"HBCU","Name":"Lincoln University of Missouri","Town":"Jefferson City","State":"Missouri","Latitude":38.56293,"Longitude":-92.171305,"Year_Estab":1866,"Comments":""}},
{"type":"Feature","geometry":{"type":"Point","coordinates":[1385949.8989667508,-91460.89940737747]},"properties":{"Category":"HBCU","Name":"Livingstone College","Town":"Salisbury","State":"North Carolina","Latitude":35.671345,"Longitude":-80.484793,"Year_Estab":1879,"Comments":""}},
{"type":"Feature","geometry":{"type":"Point","coordinates":[818225.9172821573,-109734.28984587081]},"properties":{"Category":"HBCU","Name":"Meharry Medical College","Town":"Nashville","State":"Tennessee","Latitude":36.167052,"Longitude":-86.806815,"Year_Estab":1876,"Comments":""}},
{"type":"Feature","geometry":{"type":"Point","coordinates":[837853.0134021862,-409714.4312851932]},"properties":{"Category":"HBCU","Name":"Miles College","Town":"Fairfield","State":"Alabama","Latitude":33.480762,"Longitude":-86.909069,"Year_Estab":1905,"Comments":""}},
{"type":"Feature","geometry":{"type":"Point","coordinates":[521768.870899289,-430736.25608151034]},"properties":{"Category":"HBCU","Name":"Mississippi Valley State University","Town":"Itta Bena","State":"Mississippi","Latitude":33.51251,"Longitude":-90.341672,"Year_Estab":1950,"Comments":""}},
{"type":"Feature","geometry":{"type":"Point","coordinates":[1063200.1137435173,-355305.44387350045]},"properties":{"Category":"HBCU","Name":"Morehouse College","Town":"Atlanta","State":"Georgia","Latitude":33.745961,"Longitude":-84.413866,"Year_Estab":1867,"Comments":""}},
{"type":"Feature","geometry":{"type":"Point","coordinates":[1066008.4352733747,-354273.36817226]},"properties":{"Category":"HBCU","Name":"Morehouse School of Medicine","Town":"Atlanta","State":"Georgia","Latitude":33.752069,"Longitude":-84.382198,"Year_Estab":1975,"Comments":""}},
{"type":"Feature","geometry":{"type":"Point","coordinates":[1646495.9796910523,375407.99441992305]},"properties":{"Category":"HBCU","Name":"Morgan State University","Town":"Baltimore","State":"Maryland","Latitude":39.343576,"Longitude":-76.584661,"Year_Estab":1867,"Comments":""}},
{"type":"Feature","geometry":{"type":"Point","coordinates":[1063560.3837508378,-354250.8611454014]},"properties":{"Category":"HBCU","Name":"Morris Brown College","Town":"Atlanta","State":"Georgia","Latitude":33.754938,"Longitude":-84.408584,"Year_Estab":1881,"Comments":""}},
{"type":"Feature","geometry":{"type":"Point","coordinates":[1429941.6963948957,-280705.4454287309]},"properties":{"Category":"HBCU","Name":"Morris College","Town":"Sumter","State":"South Carolina","Latitude":33.938028,"Longitude":-80.346969,"Year_Estab":1908,"Comments":""}},
{"type":"Feature","geometry":{"type":"Point","coordinates":[1731137.4664520486,107363.6989057064]},"properties":{"Category":"HBCU","Name":"Norfolk State University","Town":"Norfolk","State":"Virginia","Latitude":36.848016,"Longitude":-76.262045,"Year_Estab":1935,"Comments":""}},
{"type":"Feature","geometry":{"type":"Point","coordinates":[1441151.4222284886,-35670.5825217329]},"properties":{"Category":"HBCU","Name":"North Carolina A&T State University","Town":"Greensboro","State":"North Carolina","Latitude":36.080716,"Longitude":-79.772858,"Year_Estab":1891,"Comments":""}},
{"type":"Feature","geometry":{"type":"Point","coordinates":[1520141.3088361311,-33722.47059759777]},"properties":{"Category":"HBCU","Name":"North Carolina Central University","Town":"Durham","State":"North Carolina","Latitude":35.974789,"Longitude":-78.898133,"Year_Estab":1910,"Comments":""}},
{"type":"Feature","geometry":{"type":"Point","coordinates":[847168.1236030756,-266050.2873945385]},"properties":{"Category":"HBCU","Name":"Oakwood University","Town":"Huntsville","State":"Alabama","Latitude":34.751977,"Longitude":-86.65585,"Year_Estab":1896,"Comments":""}},
{"type":"Feature","geometry":{"type":"Point","coordinates":[1288391.323733078,-355952.88380556554]},"properties":{"Category":"HBCU","Name":"Paine College","Town":"Augusta","State":"Georgia","Latitude":33.469551,"Longitude":-81.993249,"Year_Estab":1882,"Comments":""}},
{"type":"Feature","geometry":{"type":"Point","coordinates":[-70487.06881766052,-538863.6020979434]},"properties":{"Category":"HBCU","Name":"Paul Quinn College","Town":"Dallas","State":"Texas","Latitude":32.680473,"Longitude":-96.755956,"Year_Estab":1872,"Comments":""}},
{"type":"Feature","geometry":{"type":"Point","coordinates":[1026509.4009580513,313814.1196925631]},"properties":{"Category":"HBCU","Name":"Payne Theological Seminary","Town":"Wilberforce","State":"Ohio","Latitude":39.715339,"Longitude":-83.884703,"Year_Estab":1856,"Comments":""}},
{"type":"Feature","geometry":{"type":"Point","coordinates":[337516.0606843595,-302789.7847989332]},"properties":{"Category":"HBCU","Name":"Philander Smith College","Town":"Little Rock","State":"Arkansas","Latitude":34.737151,"Longitude":-92.28301,"Year_Estab":1877,"Comments":""}},
{"type":"Feature","geometry":{"type":"Point","coordinates":[961.0155207524498,-826993.9669930637]},"properties":{"Category":"HBCU","Name":"Prairie View A&M University","Town":"Prairie View","State":"Texas","Latitude":30.093871,"Longitude":-95.990025,"Year_Estab":1876,"Comments":""}},
{"type":"Feature","geometry":{"type":"Point","coordinates":[594359.8812374022,-284497.12993876636]},"properties":{"Category":"HBCU","Name":"Rust College","Town":"Holly Springs","State":"Mississippi","Latitude":34.776449,"Longitude":-89.447584,"Year_Estab":1866,"Comments":""}},
{"type":"Feature","geometry":{"type":"Point","coordinates":[1398529.5716558872,-502133.4186600838]},"properties":{"Category":"HBCU","Name":"Savannah State University","Town":"Savannah","State":"Geogria","Latitude":32.024549,"Longitude":-81.062765,"Year_Estab":1890,"Comments":""}},
{"type":"Feature","geometry":{"type":"Point","coordinates":[837442.7076949781,-528606.4997408781]},"properties":{"Category":"HBCU","Name":"Selma University","Town":"Selma","State":"Alabama","Latitude":32.4205,"Longitude":-87.034825,"Year_Estab":1878,"Comments":""}},
{"type":"Feature","geometry":{"type":"Point","coordinates":[1547264.1699184896,-51968.33343792241]},"properties":{"Category":"HBCU","Name":"Shaw University","Town":"Raleigh","State":"North Carolina","Latitude":35.770827,"Longitude":-78.636786,"Year_Estab":1865,"Comments":""}},
{"type":"Feature","geometry":{"type":"Point","coordinates":[781441.1499413175,-455313.3840186894]},"properties":{"Category":"HBCU","Name":"Shelton State Community College","Town":"Tuscaloosa","State":"Alabama","Latitude":33.120624,"Longitude":-87.561625,"Year_Estab":1952,"Comments":""}},
{"type":"Feature","geometry":{"type":"Point","coordinates":[339486.48606124526,-300221.61066623405]},"properties":{"Category":"HBCU","Name":"Shorter College","Town":"Little Rock","State":"Arkansas","Latitude":34.759402,"Longitude":-92.26022,"Year_Estab":1886,"Comments":""}},
{"type":"Feature","geometry":{"type":"Point","coordinates":[885670.4225357925,130627.6453109337]},"properties":{"Category":"HBCU","Name":"Simmons College","Town":"Louisville","State":"Kentucky","Latitude":38.239548,"Longitude":-85.764741,"Year_Estab":1869,"Comments":""}},
{"type":"Feature","geometry":{"type":"Point","coordinates":[1392177.198009764,-336649.84643857926]},"properties":{"Category":"HBCU","Name":"South Carolina State University","Town":"Orangeburg","State":"South Carolina","Latitude":33.498363,"Longitude":-80.850056,"Year_Estab":1896,"Comments":""}},
{"type":"Feature","geometry":{"type":"Point","coordinates":[460100.05581158854,-767283.5022763908]},"properties":{"Category":"HBCU","Name":"Southern University and A&M College","Town":"Baton Rouge","State":"Louisiana","Latitude":30.526777,"Longitude":-91.193602,"Year_Estab":1880,"Comments":""}},
{"type":"Feature","geometry":{"type":"Point","coordinates":[573412.8317334881,-816571.8237680104]},"properties":{"Category":"HBCU","Name":"Southern University at New Orleans","Town":"New Orleans","State":"Louisiana","Latitude":30.025848,"Longitude":-90.044916,"Year_Estab":1959,"Comments":""}},
{"type":"Feature","geometry":{"type":"Point","coordinates":[202235.58141822767,-552030.5754151847]},"properties":{"Category":"HBCU","Name":"Southern University at Shreveport","Town":"Shreveport","State":"Louisiana","Latitude":32.544275,"Longitude":-93.83465,"Year_Estab":1967,"Comments":""}},
{"type":"Feature","geometry":{"type":"Point","coordinates":[-26627.76291991023,-532995.2653014176]},"properties":{"Category":"HBCU","Name":"Southwestern Christian College","Town":"Terrell","State":"Texas","Latitude":32.735234,"Longitude":-96.285775,"Year_Estab":1948,"Comments":""}},
{"type":"Feature","geometry":{"type":"Point","coordinates":[1063336.5597864473,-355243.5894960873]},"properties":{"Category":"HBCU","Name":"Spellman College","Town":"Atlanta","State":"Georgia","Latitude":33.746362,"Longitude":-84.412312,"Year_Estab":1881,"Comments":""}},
{"type":"Feature","geometry":{"type":"Point","coordinates":[1548478.1046560712,-49813.29213646799]},"properties":{"Category":"HBCU","Name":"St. Augustine's University","Town":"Raleigh","State":"North Carolina","Latitude":35.787783,"Longitude":-78.619091,"Year_Estab":1867,"Comments":""}},
{"type":"Feature","geometry":{"type":"Point","coordinates":[-238114.75317076812,-899111.6931596529]},"properties":{"Category":"HBCU","Name":"St. Philip's College","Town":"San Antonio","State":"Texas","Latitude":29.415916,"Longitude":-98.453444,"Year_Estab":1898,"Comments":""}},
{"type":"Feature","geometry":{"type":"Point","coordinates":[778430.343174077,-446881.6822329331]},"properties":{"Category":"HBCU","Name":"Stillman College","Town":"Tuscaloosa","State":"Alabama","Latitude":33.198249,"Longitude":-87.585927,"Year_Estab":1876,"Comments":""}},
{"type":"Feature","geometry":{"type":"Point","coordinates":[911471.5707771617,-407727.33951871097]},"properties":{"Category":"HBCU","Name":"Talladega College","Town":"Talladega County","State":"Alabama","Latitude":33.432756,"Longitude":-86.113572,"Year_Estab":1867,"Comments":""}},
{"type":"Feature","geometry":{"type":"Point","coordinates":[816385.8600567944,-109938.07479511946]},"properties":{"Category":"HBCU","Name":"Tennessee State University","Town":"Nashville","State":"Tennessee","Latitude":36.166826,"Longitude":-86.827581,"Year_Estab":1912,"Comments":""}},
{"type":"Feature","geometry":{"type":"Point","coordinates":[64351.74632956729,-572976.7417696733]},"properties":{"Category":"HBCU","Name":"Texas College","Town":"Tyler","State":"Texas","Latitude":32.375003,"Longitude":-95.312502,"Year_Estab":1894,"Comments":""}},
{"type":"Feature","geometry":{"type":"Point","coordinates":[61839.94386427366,-868068.2760713138]},"properties":{"Category":"HBCU","Name":"Texas Southern University","Town":"Houston","State":"Texas","Latitude":29.721785,"Longitude":-95.360549,"Year_Estab":1927,"Comments":""}},
{"type":"Feature","geometry":{"type":"Point","coordinates":[546024.7250409289,-553100.9077234864]},"properties":{"Category":"HBCU","Name":"Tougaloo College","Town":"Tougaloo","State":"MIssissippi","Latitude":32.404854,"Longitude":-90.160717,"Year_Estab":1869,"Comments":""}},
{"type":"Feature","geometry":{"type":"Point","coordinates":[902706.9139591213,-530062.6998387687]},"properties":{"Category":"HBCU","Name":"Trenholm State Technical College","Town":"Montgomery","State":"Alabama","Latitude":32.350238,"Longitude":-86.342352,"Year_Estab":1947,"Comments":""}},
{"type":"Feature","geometry":{"type":"Point","coordinates":[960821.004420642,-514796.3626335021]},"properties":{"Category":"HBCU","Name":"Tuskegee University","Town":"Tuskegee","State":"Alabama","Latitude":32.431801,"Longitude":-85.707693,"Year_Estab":1881,"Comments":""}},
{"type":"Feature","geometry":{"type":"Point","coordinates":[363567.75460904575,-356582.5410211794]},"properties":{"Category":"HBCU","Name":"University of Arkansas - Pine Bluff","Town":"Pine Bluff","State":"Arkansas","Latitude":34.247067,"Longitude":-92.021221,"Year_Estab":1873,"Comments":""}},
{"type":"Feature","geometry":{"type":"Point","coordinates":[1748600.106544157,267209.5330126807]},"properties":{"Category":"HBCU","Name":"University of Maryland - Eastern Shore","Town":"Princess Anne","State":"Maryland","Latitude":38.2102,"Longitude":-75.685004,"Year_Estab":1886,"Comments":""}},
{"type":"Feature","geometry":{"type":"Point","coordinates":[1615104.0132129467,323355.43150001206]},"properties":{"Category":"HBCU","Name":"University of the District of Columbia","Town":"Washington","State":"District of Columbia","Latitude":38.9447,"Longitude":-77.065635,"Year_Estab":1851,"Comments":""}},
{"type":"Feature","geometry":{"type":"Point","coordinates":[3384809.025357441,-1613940.390074147]},"properties":{"Category":"HBCU","Name":"University of the Virgin Islands","Town":"St. Croix & St. Thomas","State":"United States Virgin Islands","Latitude":17.718539,"Longitude":-64.797917,"Year_Estab":1962,"Comments":""}},
{"type":"Feature","geometry":{"type":"Point","coordinates":[1622407.5800944397,129796.8333449969]},"properties":{"Category":"HBCU","Name":"Virginia State University","Town":"Petersburg","State":"Virginia","Latitude":37.238478,"Longitude":-77.420108,"Year_Estab":1882,"Comments":""}},
{"type":"Feature","geometry":{"type":"Point","coordinates":[1612662.1210926024,164891.1032012878]},"properties":{"Category":"HBCU","Name":"Virginia Union University","Town":"Richmond","State":"Virginia","Latitude":37.562558,"Longitude":-77.451448,"Year_Estab":1865,"Comments":""}},
{"type":"Feature","geometry":{"type":"Point","coordinates":[1469787.1667470902,118889.92243120074]},"properties":{"Category":"HBCU","Name":"Virginia University of Lynchburg","Town":"Lynchburg","State":"Virginia","Latitude":37.395235,"Longitude":-79.151574,"Year_Estab":1886,"Comments":""}},
{"type":"Feature","geometry":{"type":"Point","coordinates":[1369978.9839505898,-361804.4082014505]},"properties":{"Category":"HBCU","Name":"Voorhees College","Town":"Denmark","State":"South Carolina","Latitude":33.307172,"Longitude":-81.130138,"Year_Estab":1897,"Comments":""}},
{"type":"Feature","geometry":{"type":"Point","coordinates":[1227090.3191561187,190570.17617972195]},"properties":{"Category":"HBCU","Name":"West Virginia State University","Town":"Institute","State":"West Virginia","Latitude":38.378883,"Longitude":-81.766481,"Year_Estab":1891,"Comments":""}},
{"type":"Feature","geometry":{"type":"Point","coordinates":[1027054.5731057678,313354.7155144615]},"properties":{"Category":"HBCU","Name":"Wilberforce University","Town":"Wilberforce","State":"Ohio","Latitude":39.710654,"Longitude":-83.879026,"Year_Estab":1856,"Comments":""}},
{"type":"Feature","geometry":{"type":"Point","coordinates":[151771.11147707305,-553683.2102877107]},"properties":{"Category":"HBCU","Name":"Wiley College","Town":"Marshall","State":"Texas","Latitude":32.538482,"Longitude":-94.375158,"Year_Estab":1873,"Comments":""}},
{"type":"Feature","geometry":{"type":"Point","coordinates":[1401192.4169395093,-41423.616319229826]},"properties":{"Category":"HBCU","Name":"Winston-Salem State University","Town":"Winston-Salem","State":"North Carolina","Latitude":36.089865,"Longitude":-80.225106,"Year_Estab":1892,"Comments":""}},
{"type":"Feature","geometry":{"type":"Point","coordinates":[567862.8751452066,-823806.7737254202]},"properties":{"Category":"HBCU","Name":"Xavier University of Louisiana","Town":"New Orleans","State":"Louisiana","Latitude":29.963893,"Longitude":-90.107059,"Year_Estab":1915,"Comments":""}}
]}